$ADVER,3080,2.2
$GPRMC,053557.280,A,3518.2337,N,08930.0836,W,0.26,22.87,071109,,,A*47
$GPGGA,053558.280,3518.2332,N,08930.0846,W,1,04,3.0,88.5,M,-30.4,M,,0000*55
$GPGSA,A,3,22,26,31,18,,,,,,,,,6.6,3.0,5.9*32
$GPGSV,3,1,12,22,74,056,34,26,58,022,33,18,42,105,35,31,24,203,32*7F
$GPGSV,3,2,12,14,65,320,26,30,19,119,35,09,17,040,,12,16,081,35*7C
$GPGSV,3,3,12,21,11,165,29,27,08,038,,19,06,271,,11,02,321,*7E
$GPRMC,053558.280,A,3518.2332,N,08930.0846,W,0.15,50.46,071109,,,A*42
$GPVTG,50.46,T,,M,0.15,N,0.3,K,A*3D
$GPGGA,053559.280,3518.2332,N,08930.0845,W,1,04,2.9,88.7,M,-30.4,M,,0000*5D
$GPGSA,A,3,22,26,31,18,,,,,,,,,6.6,2.9,5.9*3A
$GPRMC,053559.280,A,3518.2332,N,08930.0845,W,0.13,57.49,071109,,,A*4E
$GPVTG,57.49,T,,M,0.13,N,0.2,K,A*32
$GPGGA,053600.000,3518.2332,N,08930.0846,W,1,04,2.9,88.8,M,-30.4,M,,0000*54
$GPGSA,A,3,22,26,31,18,,,,,,,,,6.6,2.9,5.9*3A
$GPRMC,053600.000,A,3518.2332,N,08930.0846,W,0.00,57.49,071109,,,A*4A
$GPVTG,57.49,T,,M,0.00,N,0.0,K,A*32
$GPGGA,053601.000,3518.2332,N,08930.0846,W,1,04,2.9,88.8,M,-30.4,M,,0000*55
$GPGSA,A,3,22,26,31,18,,,,,,,,,6.6,2.9,5.9*3A
$GPRMC,053601.000,A,3518.2332,N,08930.0846,W,0.00,57.49,071109,,,A*4B
$GPVTG,57.49,T,,M,0.00,N,0.0,K,A*32
$GPGGA,053602.000,3518.2332,N,08930.0846,W,1,04,2.9,88.8,M,-30.4,M,,0000*56
$GPGSA,A,3,22,26,31,18,,,,,,,,,6.6,2.9,5.9*3A
$GPRMC,053602.000,A,3518.2332,N,08930.0846,W,0.00,57.49,071109,,,A*48
$GPVTG,57.49,T,,M,0.00,N,0.0,K,A*32
$GPGGA,053603.000,3518.2332,N,08930.0846,W,1,07,1.9,88.8,M,-30.4,M,,0000*57
$GPGSA,A,3,22,26,31,18,21,12,30,,,,,,3.1,1.9,2.5*33
$GPGSV,3,1,12,22,74,056,34,26,58,022,33,18,42,105,35,31,24,203,32*7F
$GPGSV,3,2,12,14,65,320,27,30,19,119,34,09,17,040,22,12,16,081,36*7F
$GPGSV,3,3,12,21,11,165,29,27,08,038,,19,06,271,26,11,02,321,*7A
$GPRMC,053603.000,A,3518.2332,N,08930.0846,W,0.00,57.49,071109,,,A*49
$GPGGA,053604.000,3518.2332,N,08930.0846,W,1,07,1.9,88.8,M,-30.4,M,,0000*50
$GPGSA,A,3,22,26,31,18,21,12,30,,,,,,3.1,1.9,2.5*33
$GPRMC,053604.000,A,3518.2332,N,08930.0846,W,0.00,57.49,071109,,,A*4E
$GPVTG,57.49,T,,M,0.00,N,0.0,K,A*32
$GPGGA,053605.000,3518.2332,N,08930.0846,W,1,07,1.9,88.8,M,-30.4,M,,0000*51
$GPGSA,A,3,22,26,31,18,21,12,30,,,,,,3.1,1.9,2.5*33
$GPRMC,053605.000,A,3518.2332,N,08930.0846,W,0.00,57.49,071109,,,A*4F
$GPVTG,57.49,T,,M,0.00,N,0.0,K,A*32
$GPGGA,053606.000,3518.2332,N,08930.0846,W,1,07,1.9,88.8,M,-30.4,M,,0000*52
$GPGSA,A,3,22,26,31,18,21,12,30,,,,,,3.1,1.9,2.5*33
$GPRMC,053606.000,A,3518.2332,N,08930.0846,W,0.00,57.49,071109,,,A*4C
$GPVTG,57.49,T,,M,0.00,N,0.0,K,A*32
$GPGGA,053607.000,3518.2332,N,08930.0846,W,1,07,1.9,88.8,M,-30.4,M,,0000*53
$GPGSA,A,3,22,26,31,18,21,12,30,,,,,,3.1,1.9,2.5*33
$GPRMC,053607.000,A,3518.2332,N,08930.0846,W,0.00,57.49,071109,,,A*4D
$GPVTG,57.49,T,,M,0.00,N,0.0,K,A*32
$GPGGA,053608.000,3518.2332,N,08930.0846,W,1,07,1.9,88.8,M,-30.4,M,,0000*5C
$GPGSA,A,3,22,26,31,18,21,12,30,,,,,,3.1,1.9,2.5*33
$GPGSV,3,1,12,22,74,056,33,14,65,320,28,26,58,022,33,18,42,105,35*71
$GPGSV,3,2,12,31,24,203,32,30,19,119,34,09,17,040,22,12,16,081,36*79
$GPGSV,3,3,12,21,11,165,28,27,08,038,,19,06,271,26,11,02,321,*7B
$GPRMC,053608.000,A,3518.2332,N,08930.0846,W,0.00,57.49,071109,,,A*42
$GPVTG,57.49,T,,M,0.00,N,0.0,K,A*32
$GPGGA,053609.000,3518.2332,N,08930.0846,W,1,07,1.9,88.8,M,-30.4,M,,0000*5D
$GPGSA,A,3,22,26,31,18,21,12,30,,,,,,3.1,1.9,2.5*33
$GPRMC,053609.000,A,3518.2332,N,08930.0846,W,0.00,57.49,071109,,,A*43
$GPVTG,57.49,T,,M,0.00,N,0.0,K,A*32
$GPGGA,053610.000,3518.2332,N,08930.0846,W,1,07,1.9,88.8,M,-30.4,M,,0000*55
$GPGSA,A,3,22,26,31,18,21,12,30,,,,,,3.1,1.9,2.5*33
$GPRMC,053610.000,A,3518.2332,N,08930.0846,W,0.00,57.49,071109,,,A*4B
$GPVTG,57.49,T,,M,0.00,N,0.0,K,A*32
$GPGGA,053611.000,3518.2332,N,08930.0846,W,1,07,1.9,88.8,M,-30.4,M,,0000*54
$GPGSA,A,3,22,26,31,18,21,12,30,,,,,,3.1,1.9,2.5*33
$GPRMC,053611.000,A,3518.2332,N,08930.0846,W,0.00,57.49,071109,,,A*4A
$GPVTG,57.49,T,,M,0.00,N,0.0,K,A*32
$GPGGA,053612.000,3518.2332,N,08930.0846,W,1,07,1.9,88.8,M,-30.4,M,,0000*57
$GPGSA,A,3,22,26,31,18,21,12,30,,,,,,3.1,1.9,2.5*33
$GPRMC,053612.000,A,3518.2332,N,08930.0846,W,0.00,57.49,071109,,,A*49
$GPVTG,57.49,T,,M,0.00,N,0.0,K,A*32
$GPGGA,053613.000,3518.2332,N,08930.0846,W,1,07,1.9,88.8,M,-30.4,M,,0000*56
$GPGSA,A,3,22,26,31,18,21,12,30,,,,,,3.1,1.9,2.5*33
$GPGSV,3,1,12,22,74,056,33,14,65,320,29,26,58,023,33,18,42,105,34*70
$GPGSV,3,2,12,31,24,203,32,30,19,119,34,09,17,040,22,12,16,081,36*79
$GPGSV,3,3,12,21,11,165,28,27,08,038,,19,06,271,25,11,02,321,*78
$GPRMC,053613.000,A,3518.2332,N,08930.0846,W,0.00,57.49,071109,,,A*48
$GPVTG,57.49,T,,M,0.00,N,0.0,K,A*32
$GPGGA,053614.000,3518.2332,N,08930.0846,W,1,07,1.9,88.8,M,-30.4,M,,0000*51
$GPGSA,A,3,22,26,31,18,21,12,30,,,,,,3.1,1.9,2.5*33
$GPRMC,053614.000,A,3518.2332,N,08930.0846,W,0.00,57.49,071109,,,A*4F
$GPVTG,57.49,T,,M,0.00,N,0.0,K,A*32
$GPGGA,053615.000,3518.2332,N,08930.0846,W,1,07,1.9,88.8,M,-30.4,M,,0000*50
$GPGSA,A,3,22,26,31,18,21,12,30,,,,,,3.1,1.9,2.5*33
$GPRMC,053615.000,A,3518.2332,N,08930.0846,W,0.00,57.49,071109,,,A*4E
$GPVTG,57.49,T,,M,0.00,N,0.0,K,A*32
$GPGGA,053616.000,3518.2332,N,08930.0846,W,1,07,1.9,88.8,M,-30.4,M,,0000*53
$GPGSA,A,3,22,26,31,18,21,12,30,,,,,,3.1,1.9,2.5*33
$GPRMC,053616.000,A,3518.2332,N,08930.0846,W,0.00,57.49,071109,,,A*4D
$GPVTG,57.49,T,,M,0.00,N,0.0,K,A*32
$GPGGA,053617.000,3518.2332,N,08930.0846,W,1,07,1.9,88.8,M,-30.4,M,,0000*52
$GPGSA,A,3,22,26,31,18,21,12,30,,,,,,3.1,1.9,2.5*33
$GPRMC,053617.000,A,3518.2332,N,08930.0846,W,0.00,57.49,071109,,,A*4C
$GPVTG,57.49,T,,M,0.00,N,0.0,K,A*32
$GPGGA,053618.000,3518.2332,N,08930.0846,W,1,07,1.9,88.8,M,-30.4,M,,0000*5D
$GPGSA,A,3,22,26,31,18,21,12,30,,,,,,3.1,1.9,2.5*33
$GPGSV,3,1,12,22,74,057,33,14,65,320,29,26,58,023,33,18,42,105,34*71
$GPGSV,3,2,12,31,24,203,32,30,19,119,34,09,17,040,21,12,16,081,36*7A
$GPGSV,3,3,12,21,11,165,29,27,08,038,,19,06,271,25,11,02,321,*79
$GPVTG,57.49,T,,M,0.00,N,0.0,K,A*32
$GPGGA,053619.000,3518.2332,N,08930.0846,W,1,07,1.9,88.8,M,-30.4,M,,0000*5C
$GPGSA,A,3,22,26,31,18,21,12,30,,,,,,3.1,1.9,2.5*33
$GPRMC,053619.000,A,3518.2332,N,08930.0846,W,0.00,57.49,071109,,,A*42
$GPVTG,57.49,T,,M,0.00,N,0.0,K,A*32
$GPGGA,053620.000,3518.2332,N,08930.0846,W,1,07,1.9,88.8,M,-30.4,M,,0000*56
$GPGSA,A,3,22,26,31,18,21,12,30,,,,,,3.1,1.9,2.5*33
$GPRMC,053620.000,A,3518.2332,N,08930.0846,W,0.00,57.49,071109,,,A*48
$GPVTG,57.49,T,,M,0.00,N,0.0,K,A*32
$GPGGA,053621.000,3518.2332,N,08930.0846,W,1,07,1.9,88.8,M,-30.4,M,,0000*57
$GPGSA,A,3,22,26,31,18,21,12,30,,,,,,3.1,1.9,2.5*33
$GPRMC,053621.000,A,3518.2332,N,08930.0846,W,0.00,57.49,071109,,,A*49
$GPVTG,57.49,T,,M,0.00,N,0.0,K,A*32
$GPGGA,053622.000,3518.2332,N,08930.0846,W,1,07,1.9,88.8,M,-30.4,M,,0000*54
$GPGSA,A,3,22,26,31,18,21,12,30,,,,,,3.1,1.9,2.5*33
$GPRMC,053622.000,A,3518.2332,N,08930.0846,W,0.00,57.49,071109,,,A*4A
$GPVTG,57.49,T,,M,0.00,N,0.0,K,A*32
$GPGGA,053623.000,3518.2332,N,08930.0846,W,1,07,1.9,88.8,M,-30.4,M,,0000*55
$GPGSA,A,3,22,26,31,18,21,12,30,,,,,,3.1,1.9,2.5*33
$GPGSV,3,1,12,22,74,057,33,14,65,320,29,26,58,023,34,18,42,105,33*71
$GPGSV,3,2,12,31,24,203,32,30,19,119,34,09,17,040,21,12,16,081,36*7A
$GPGSV,3,3,12,21,11,165,29,27,08,038,,19,06,271,26,11,02,321,*7A
$GPRMC,053623.000,A,3518.2332,N,08930.0846,W,0.00,57.49,071109,,,A*4B
$GPVTG,57.49,T,,M,0.00,N,0.0,K,A*32
$GPGGA,053624.000,3518.2332,N,08930.0846,W,1,07,1.9,88.8,M,-30.4,M,,0000*52
$GPGSA,A,3,22,26,31,18,21,12,30,,,,,,3.1,1.9,2.5*33
$GPRMC,053624.000,A,3518.2332,N,08930.0846,W,0.00,57.49,071109,,,A*4C
$GPVTG,57.49,T,,M,0.00,N,0.0,K,A*32
$GPGGA,053625.000,3518.2332,N,08930.0846,W,1,07,1.9,88.8,M,-30.4,M,,0000*53
$GPGSA,A,3,22,26,31,18,21,12,30,,,,,,3.1,1.9,2.5*33
$GPRMC,053625.000,A,3518.2332,N,08930.0846,W,0.00,57.49,071109,,,A*4D
$GPVTG,57.49,T,,M,0.00,N,0.0,K,A*32
$GPGGA,053626.000,3518.2332,N,08930.0846,W,1,07,1.9,88.8,M,-30.4,M,,0000*50
$GPGSA,A,3,22,26,31,18,21,12,30,,,,,,3.1,1.9,2.5*33
$GPRMC,053626.000,A,3518.2332,N,08930.0846,W,0.00,57.49,071109,,,A*4E
$GPVTG,57.49,T,,M,0.00,N,0.0,K,A*32
$GPGGA,053627.000,3518.2332,N,08930.0846,W,1,07,1.9,88.8,M,-30.4,M,,0000*51
$GPGSA,A,3,22,26,31,18,21,12,30,,,,,,3.1,1.9,2.5*33
$GPRMC,053627.000,A,3518.2332,N,08930.0846,W,0.00,57.49,071109,,,A*4F
$GPVTG,57.49,T,,M,0.00,N,0.0,K,A*32
$GPGGA,053628.000,3518.2332,N,08930.0846,W,1,07,1.9,88.8,M,-30.4,M,,0000*5E
$GPGSA,A,3,22,26,31,18,21,12,30,,,,,,3.1,1.9,2.5*33
$GPGSV,3,1,12,22,74,057,33,14,65,320,28,26,58,023,34,18,42,105,33*70
$GPGSV,3,2,12,31,24,203,32,30,19,119,34,09,17,040,20,12,16,081,37*7A
$GPGSV,3,3,12,21,11,165,29,27,08,038,,19,06,271,26,11,02,321,*7A
$GPRMC,053628.000,A,3518.2332,N,08930.0846,W,0.00,57.49,071109,,,A*40
$GPVTG,57.49,T,,M,0.00,N,0.0,K,A*32
$GPGGA,053629.000,3518.2332,N,08930.0846,W,1,07,1.9,88.8,M,-30.4,M,,0000*5F
$GPGSA,A,3,22,26,31,18,21,12,30,,,,,,3.1,1.9,2.5*33
$GPRMC,053629.000,A,3518.2332,N,08930.0846,W,0.00,57.49,071109,,,A*41
$GPVTG,57.49,T,,M,0.00,N,0.0,K,A*32
$GPGGA,053630.000,3518.2332,N,08930.0846,W,1,07,1.9,88.8,M,-30.4,M,,0000*57
$GPGSA,A,3,22,26,31,18,21,12,30,,,,,,3.1,1.9,2.5*33
$GPRMC,053630.000,A,3518.2332,N,08930.0846,W,0.00,57.49,071109,,,A*49
$GPVTG,57.49,T,,M,0.00,N,0.0,K,A*32
$GPGGA,053631.000,3518.2332,N,08930.0846,W,1,07,1.9,88.8,M,-30.4,M,,0000*56
$GPGSA,A,3,22,26,31,18,21,12,30,,,,,,3.1,1.9,2.5*33
$GPRMC,053631.000,A,3518.2332,N,08930.0846,W,0.00,57.49,071109,,,A*48
$GPVTG,57.49,T,,M,0.00,N,0.0,K,A*32
$GPGGA,053632.000,3518.2332,N,08930.0846,W,1,07,1.9,88.8,M,-30.4,M,,0000*55
$GPGSA,A,3,22,26,31,18,21,12,30,,,,,,3.1,1.9,2.5*33
$GPRMC,053632.000,A,3518.2332,N,08930.0846,W,0.00,57.49,071109,,,A*4B
$GPVTG,57.49,T,,M,0.00,N,0.0,K,A*32
$GPGGA,053633.000,3518.2332,N,08930.0846,W,1,08,1.7,88.8,M,-30.4,M,,0000*55
$GPGSA,A,3,22,26,31,18,14,21,12,30,,,,,3.0,1.7,2.4*38
$GPGSV,3,1,12,22,74,057,33,14,65,320,27,26,58,023,34,18,42,105,33*7F
$GPGSV,3,2,12,31,24,203,32,30,19,119,35,09,17,040,19,12,16,081,37*71
$GPRMC,053633.000,A,3518.2332,N,08930.0846,W,0.00,57.49,071109,,,A*4A
$GPVTG,57.49,T,,M,0.00,N,0.0,K,A*32
$GPGGA,053634.000,3518.2332,N,08930.0846,W,1,08,1.7,88.8,M,-30.4,M,,0000*52
$GPGSA,A,3,22,26,31,18,14,21,12,30,,,,,3.0,1.7,2.4*38
$GPRMC,053634.000,A,3518.2332,N,08930.0846,W,0.00,57.49,071109,,,A*4D
$GPVTG,57.49,T,,M,0.00,N,0.0,K,A*32
$GPGGA,053635.000,3518.2332,N,08930.0846,W,1,08,1.7,88.8,M,-30.4,M,,0000*53
$GPGSA,A,3,22,26,31,18,14,21,12,30,,,,,3.0,1.7,2.4*38
$GPRMC,053635.000,A,3518.2332,N,08930.0846,W,0.00,57.49,071109,,,A*4C
$GPVTG,57.49,T,,M,0.00,N,0.0,K,A*32
$GPGGA,053636.000,3518.2324,N,08930.0826,W,2,08,1.7,88.7,M,-30.4,M,,0000*5D
$GPGSA,A,3,22,26,31,18,14,21,12,30,,,,,3.0,1.7,2.4*38
$GPRMC,053636.000,A,3518.2324,N,08930.0826,W,0.07,83.79,071109,,,D*46
$GPVTG,83.79,T,,M,0.07,N,0.1,K,D*3B
$GPGGA,053637.000,3518.2323,N,08930.0826,W,2,08,1.7,88.9,M,-30.4,M,1.8,0000*72
$GPGSA,A,3,22,26,31,18,14,21,12,30,,,,,3.0,1.7,2.4*38
$GPRMC,053637.000,A,3518.2323,N,08930.0826,W,0.11,75.63,071109,,,D*45
$GPVTG,75.63,T,,M,0.11,N,0.2,K,D*3D
$GPGGA,053638.000,3518.2322,N,08930.0825,W,2,08,1.7,89.0,M,-30.4,M,,0000*50
$GPGSA,A,3,22,26,31,18,14,21,12,30,,,,,3.0,1.7,2.4*38
$GPGSV,3,1,12,22,74,057,32,14,65,321,27,26,58,023,34,18,42,105,33*7F
$GPGSV,3,2,12,31,25,203,32,30,19,119,35,09,17,040,19,12,16,081,37*70
$GPGSV,3,3,12,21,11,165,29,27,08,038,,19,06,271,27,11,02,321,*7B
$GPRMC,053638.000,A,3518.2322,N,08930.0825,W,0.09,94.32,071109,,,D*4A
$GPVTG,94.32,T,,M,0.09,N,0.2,K,D*3F
$GPGGA,053639.000,3518.2322,N,08930.0824,W,2,08,1.7,89.2,M,-30.4,M,2.8,0000*76
$GPGSA,A,3,22,26,31,18,14,21,12,30,,,,,3.0,1.7,2.4*38
$GPRMC,053639.000,A,3518.2322,N,08930.0824,W,0.08,86.73,071109,,,D*4D
$GPVTG,86.73,T,,M,0.08,N,0.2,K,D*38
$GPGGA,053640.000,3518.2321,N,08930.0824,W,2,08,1.7,89.3,M,-30.4,M,3.8,0000*7B
$GPGSA,A,3,22,26,31,18,14,21,12,30,,,,,3.0,1.7,2.4*38
$GPRMC,053640.000,A,3518.2321,N,08930.0824,W,0.10,79.97,071109,,,D*43
$GPVTG,79.97,T,,M,0.10,N,0.2,K,D*3B
$GPGGA,053641.000,3518.2321,N,08930.0823,W,2,08,1.7,89.5,M,-30.4,M,,0000*5E
$GPGSA,A,3,22,26,31,18,14,21,12,30,,,,,3.0,1.7,2.4*38
$GPRMC,053641.000,A,3518.2321,N,08930.0823,W,0.08,79.76,071109,,,D*43
$GPVTG,79.76,T,,M,0.08,N,0.1,K,D*3E
$GPGGA,053642.000,3518.2320,N,08930.0823,W,2,08,1.7,89.6,M,-30.4,M,,0000*5F
$GPGSA,A,3,22,26,31,18,14,21,12,30,,,,,3.0,1.7,2.4*38
$GPRMC,053642.000,A,3518.2320,N,08930.0823,W,0.06,96.91,071109,,,D*47
$GPVTG,96.91,T,,M,0.06,N,0.1,K,D*38
$GPGGA,053643.000,3518.2320,N,08930.0822,W,2,08,1.7,89.8,M,-30.4,M,,0000*51
$GPGSA,A,3,22,26,31,18,14,21,12,30,,,,,3.0,1.7,2.4*38
$GPGSV,3,1,12,22,74,057,33,14,65,321,27,26,58,023,34,18,42,105,34*79
$GPGSV,3,2,12,31,25,203,32,30,19,119,34,09,17,040,19,12,16,081,37*71
$GPGSV,3,3,12,21,11,165,29,27,08,038,,19,06,271,28,11,02,321,*74
$GPRMC,053643.000,A,3518.2320,N,08930.0822,W,0.06,139.92,071109,,,D*70
$GPVTG,139.92,T,,M,0.06,N,0.1,K,D*0F
$GPGGA,053644.000,3518.2319,N,08930.0822,W,2,08,1.7,89.9,M,-30.4,M,,0000*5D
$GPGSA,A,3,22,26,31,18,14,21,12,30,,,,,3.0,1.7,2.4*38
$GPRMC,053644.000,A,3518.2319,N,08930.0822,W,0.07,127.78,071109,,,D*77
$GPVTG,127.78,T,,M,0.07,N,0.1,K,D*05
$GPGGA,053645.000,3518.2319,N,08930.0821,W,2,08,1.7,90.1,M,-30.4,M,,0000*5F
$GPGSA,A,3,22,26,31,18,14,21,12,30,,,,,3.0,1.7,2.4*38
$GPRMC,053645.000,A,3518.2319,N,08930.0821,W,0.09,119.73,071109,,,D*7D
$GPVTG,119.73,T,,M,0.09,N,0.2,K,D*0E
$GPGGA,053646.000,3518.2318,N,08930.0821,W,2,08,1.7,90.3,M,-30.4,M,2.8,0000*7B
$GPGSA,A,3,22,26,31,18,14,21,12,30,,,,,3.0,1.7,2.4*38
$GPRMC,053646.000,A,3518.2318,N,08930.0821,W,0.08,124.28,071109,,,D*7E
$GPVTG,124.28,T,,M,0.08,N,0.2,K,D*0F
$GPGGA,053647.000,3518.2318,N,08930.0820,W,2,08,1.7,90.5,M,-30.4,M,3.8,0000*7C
$GPGSA,A,3,22,26,31,18,14,21,12,30,,,,,3.0,1.7,2.4*38
$GPRMC,053647.000,A,3518.2318,N,08930.0820,W,0.11,122.91,071109,,,D*72
$GPVTG,122.91,T,,M,0.11,N,0.2,K,D*03
$GPGGA,053648.000,3518.2318,N,08930.0819,W,2,08,1.7,90.6,M,-30.4,M,,0000*5F
$GPGSA,A,3,22,26,31,18,14,21,12,30,,,,,3.0,1.7,2.4*38
$GPGSV,3,1,12,22,74,058,33,14,65,321,27,26,58,023,34,18,42,105,35*77
$GPGSV,3,2,12,31,25,203,32,30,19,119,34,09,17,040,19,12,16,081,37*71
$GPGSV,3,3,12,21,11,165,29,27,08,038,,19,06,271,28,11,02,321,*74
$GPRMC,053648.000,A,3518.2318,N,08930.0819,W,0.10,99.48,071109,,,D*43
$GPVTG,99.48,T,,M,0.10,N,0.2,K,D*37
$GPGGA,053649.000,3518.2318,N,08930.0819,W,2,08,1.7,90.7,M,-30.4,M,,0000*5F
$GPGSA,A,3,22,26,31,18,14,21,12,30,,,,,3.0,1.7,2.4*38
$GPRMC,053649.000,A,3518.2318,N,08930.0819,W,0.13,116.42,071109,,,D*7D
$GPVTG,116.42,T,,M,0.13,N,0.2,K,D*08
$GPGGA,053650.000,3518.2317,N,08930.0818,W,2,08,1.7,90.8,M,-30.4,M,,0000*56
$GPGSA,A,3,22,26,31,18,14,21,12,30,,,,,3.0,1.7,2.4*38
$GPRMC,053650.000,A,3518.2317,N,08930.0818,W,0.11,121.21,071109,,,D*78
$GPVTG,121.21,T,,M,0.11,N,0.2,K,D*0B
$GPGGA,053651.000,3518.2317,N,08930.0818,W,2,08,1.7,90.8,M,-30.4,M,,0000*57
$GPGSA,A,3,22,26,31,18,14,21,12,30,,,,,3.0,1.7,2.4*38
$GPRMC,053651.000,A,3518.2317,N,08930.0818,W,0.10,115.42,071109,,,D*7A
$GPVTG,115.42,T,,M,0.10,N,0.2,K,D*08
$GPGGA,053652.000,3518.2317,N,08930.0818,W,2,08,1.7,90.7,M,-30.4,M,2.8,0000*7F
$GPGSA,A,3,22,26,31,18,14,21,12,30,,,,,3.0,1.7,2.4*38
$GPRMC,053652.000,A,3518.2317,N,08930.0818,W,0.10,111.61,071109,,,D*7C
$GPVTG,111.61,T,,M,0.10,N,0.2,K,D*0D
$GPGGA,053653.000,3518.2317,N,08930.0817,W,2,08,1.7,90.7,M,-30.4,M,3.8,0000*70
$GPGSA,A,3,22,26,31,18,14,21,12,30,,,,,3.0,1.7,2.4*38
$GPGSV,3,1,12,22,74,058,33,14,65,321,27,26,58,023,34,18,42,105,35*77
$GPGSV,3,2,12,31,25,203,33,30,19,119,33,09,17,040,18,12,16,081,37*76
$GPGSV,3,3,12,21,11,165,29,27,08,038,,19,06,271,28,11,02,321,*74
$GPVTG,111.92,T,,M,0.11,N,0.2,K,D*00
$GPGGA,053654.000,3518.2317,N,08930.0817,W,2,08,1.7,90.8,M,-30.4,M,,0000*5D
$GPGSA,A,3,22,26,31,18,14,21,12,30,,,,,3.0,1.7,2.4*38
$GPRMC,053654.000,A,3518.2317,N,08930.0817,W,0.05,129.44,071109,,,D*7D
$GPVTG,129.44,T,,M,0.05,N,0.1,K,D*06
$GPGGA,053655.000,3518.2317,N,08930.0817,W,2,08,1.7,90.9,M,-30.4,M,,0000*5D
$GPGSA,A,3,22,26,31,18,14,21,12,30,,,,,3.0,1.7,2.4*38
$GPRMC,053655.000,A,3518.2317,N,08930.0817,W,0.05,72.04,071109,,,D*47
$GPVTG,72.04,T,,M,0.05,N,0.1,K,D*3D
$GPGGA,053656.000,3518.2317,N,08930.0816,W,2,08,1.7,91.0,M,-30.4,M,,0000*57
$GPGSA,A,3,22,26,31,18,14,21,12,30,,,,,3.0,1.7,2.4*38
$GPRMC,053656.000,A,3518.2317,N,08930.0816,W,0.06,106.01,071109,,,D*71
$GPVTG,106.01,T,,M,0.06,N,0.1,K,D*09
$GPGGA,053657.000,3518.2316,N,08930.0816,W,2,08,1.7,91.1,M,-30.4,M,,0000*56
$GPGSA,A,3,22,26,31,18,14,21,12,30,,,,,3.0,1.7,2.4*38
$GPRMC,053657.000,A,3518.2316,N,08930.0816,W,0.07,101.19,071109,,,D*7E
$GPVTG,101.19,T,,M,0.07,N,0.1,K,D*06
$GPGGA,053658.000,3518.2316,N,08930.0816,W,2,08,1.7,91.2,M,-30.4,M,2.8,0000*7E
$GPGSA,A,3,22,26,31,18,14,21,12,30,,,,,2.9,1.7,2.4*30
$GPGSV,3,1,12,22,74,058,33,14,65,321,27,26,58,023,35,18,42,105,36*75
$GPGSV,3,2,12,31,25,203,33,30,19,119,31,09,17,040,19,12,16,081,33*71
$GPGSV,3,3,12,21,11,165,28,27,08,038,,19,06,271,25,11,02,321,*78
$GPRMC,053658.000,A,3518.2316,N,08930.0816,W,0.06,89.30,071109,,,D*4A
$GPVTG,89.30,T,,M,0.06,N,0.1,K,D*3D
$GPGGA,053659.000,3518.2316,N,08930.0815,W,2,08,1.7,91.3,M,-30.4,M,3.8,0000*7C
$GPGSA,A,3,22,26,31,18,14,21,12,30,,,,,2.9,1.7,2.4*30
$GPRMC,053659.000,A,3518.2316,N,08930.0815,W,0.22,116.55,071109,,,D*7A
$GPVTG,116.55,T,,M,0.22,N,0.4,K,D*0A
$GPGGA,053700.000,3518.2316,N,08930.0815,W,2,08,1.7,91.3,M,-30.4,M,,0000*54
$GPGSA,A,3,22,26,31,18,14,21,12,30,,,,,2.9,1.7,2.4*30
$GPRMC,053700.000,A,3518.2316,N,08930.0815,W,0.13,106.10,071109,,,D*75
$GPVTG,106.10,T,,M,0.13,N,0.2,K,D*0E
$GPGGA,053701.000,3518.2316,N,08930.0815,W,2,08,1.7,91.3,M,-30.4,M,,0000*55
$GPGSA,A,3,22,26,31,18,14,21,12,30,,,,,2.9,1.7,2.4*30
$GPRMC,053701.000,A,3518.2316,N,08930.0815,W,0.12,120.90,071109,,,D*79
$GPVTG,120.90,T,,M,0.12,N,0.2,K,D*03
$GPGGA,053702.000,3518.2316,N,08930.0815,W,2,08,1.7,91.3,M,-30.4,M,,0000*56
$GPGSA,A,3,22,26,31,18,14,21,12,30,,,,,2.9,1.7,2.4*30
$GPRMC,053702.000,A,3518.2316,N,08930.0815,W,0.03,31.53,071109,,,D*44
$GPVTG,31.53,T,,M,0.03,N,0.1,K,D*3E
$GPGGA,053703.000,3518.2316,N,08930.0815,W,2,08,1.7,91.3,M,-30.4,M,2.8,0000*73
$GPGSA,A,3,22,26,31,18,14,21,12,30,,,,,2.9,1.7,2.4*30
$GPGSV,3,1,12,22,74,058,33,14,65,321,28,26,58,023,35,18,42,105,36*7A
$GPGSV,3,2,12,31,25,203,32,30,19,119,22,09,17,040,19,12,16,081,35*74
$GPGSV,3,3,12,21,11,165,29,27,08,038,,19,06,271,22,11,02,321,*7E
$GPRMC,053703.000,A,3518.2316,N,08930.0815,W,0.07,7.53,071109,,,D*74
$GPVTG,7.53,T,,M,0.07,N,0.1,K,D*0F
$GPGGA,053704.000,3518.2316,N,08930.0814,W,2,08,1.7,91.2,M,-30.4,M,3.8,0000*75
$GPGSA,A,3,22,26,31,18,14,21,12,30,,,,,2.9,1.7,2.4*30
$GPRMC,053704.000,A,3518.2316,N,08930.0814,W,0.13,112.30,071109,,,D*77
$GPVTG,112.30,T,,M,0.13,N,0.2,K,D*09
$GPGGA,053705.000,3518.2316,N,08930.0814,W,2,08,1.7,91.2,M,-30.4,M,4.8,0000*73
$GPGSA,A,3,22,26,31,18,14,21,12,30,,,,,2.9,1.7,2.4*30
$GPRMC,053705.000,A,3518.2316,N,08930.0814,W,0.14,98.17,071109,,,D*47
$GPVTG,98.17,T,,M,0.14,N,0.3,K,D*39
$GPGGA,053706.000,3518.2316,N,08930.0813,W,2,08,1.7,91.2,M,-30.4,M,,0000*55
$GPGSA,A,3,22,26,31,18,14,21,12,30,,,,,2.9,1.7,2.4*30
$GPRMC,053706.000,A,3518.2316,N,08930.0813,W,0.11,110.18,071109,,,D*78
$GPVTG,110.18,T,,M,0.11,N,0.2,K,D*03
$GPGGA,053707.000,3518.2316,N,08930.0813,W,2,08,1.7,91.3,M,-30.4,M,,0000*55
$GPGSA,A,3,22,26,31,18,14,21,12,30,,,,,2.9,1.7,2.4*30
$GPRMC,053707.000,A,3518.2316,N,08930.0813,W,0.12,91.27,071109,,,D*4E
$GPVTG,91.27,T,,M,0.12,N,0.2,K,D*34
$GPGGA,053708.000,3518.2315,N,08930.0811,W,2,08,1.7,91.2,M,-30.4,M,,0000*5A
$GPGSA,A,3,22,26,31,18,14,21,12,30,,,,,2.9,1.7,2.4*30
$GPGSV,3,1,12,22,74,058,33,14,65,321,28,26,58,023,36,18,42,105,37*78
$GPGSV,3,2,12,31,25,203,32,30,19,119,31,09,17,040,18,12,16,081,25*76
$GPGSV,3,3,12,21,11,165,30,27,08,038,,19,06,271,23,11,02,321,*77
$GPRMC,053708.000,A,3518.2315,N,08930.0811,W,0.43,112.48,071109,,,D*77
$GPVTG,112.48,T,,M,0.43,N,0.8,K,D*09
$GPGGA,053709.000,3518.2315,N,08930.0810,W,2,08,1.7,91.2,M,-30.4,M,1.8,0000*7D
$GPGSA,A,3,22,26,31,18,14,21,12,30,,,,,2.9,1.7,2.4*30
$GPRMC,053709.000,A,3518.2315,N,08930.0810,W,0.12,87.50,071109,,,D*47
$GPVTG,87.50,T,,M,0.12,N,0.2,K,D*33
$GPGGA,053710.000,3518.2315,N,08930.0810,W,2,08,1.7,91.3,M,-30.4,M,2.8,0000*77
$GPGSA,A,3,22,26,31,18,14,21,12,30,,,,,2.9,1.7,2.4*30
$GPRMC,053710.000,A,3518.2315,N,08930.0810,W,0.11,64.43,071109,,,D*43
$GPVTG,64.43,T,,M,0.11,N,0.2,K,D*3F
$GPGGA,053711.000,3518.2315,N,08930.0810,W,2,08,1.7,91.3,M,-30.4,M,3.8,0000*77
$GPGSA,A,3,22,26,31,18,14,21,12,30,,,,,2.9,1.7,2.4*30
$GPRMC,053711.000,A,3518.2315,N,08930.0810,W,0.12,72.07,071109,,,D*46
$GPVTG,72.07,T,,M,0.12,N,0.2,K,D*3B
$GPGGA,053712.000,3518.2315,N,08930.0809,W,2,08,1.7,91.3,M,-30.4,M,,0000*59
$GPGSA,A,3,22,26,31,18,14,21,12,30,,,,,2.9,1.7,2.4*30
$GPRMC,053712.000,A,3518.2315,N,08930.0809,W,0.09,74.93,071109,,,D*4C
$GPVTG,74.93,T,,M,0.09,N,0.2,K,D*3A
$GPGGA,053713.000,3518.2315,N,08930.0809,W,2,08,1.7,91.0,M,-30.4,M,,0000*5B
$GPGSA,A,3,22,26,31,18,14,21,12,30,,,,,2.9,1.7,2.4*30
$GPGSV,3,1,12,22,74,058,34,14,65,321,27,26,58,023,36,18,42,106,37*73
$GPGSV,3,2,12,31,25,203,36,30,19,119,34,09,17,040,18,12,17,081,25*76
$GPGSV,3,3,12,21,11,165,31,27,08,038,,19,06,271,24,11,02,321,*71
$GPRMC,053713.000,A,3518.2315,N,08930.0809,W,0.17,70.40,071109,,,D*48
$GPGGA,053714.000,3518.2316,N,08930.0809,W,2,08,1.7,90.8,M,-30.4,M,,0000*56
$GPGSA,A,3,22,26,31,18,14,21,12,30,,,,,2.9,1.7,2.4*30
$GPRMC,053714.000,A,3518.2316,N,08930.0809,W,0.19,62.11,071109,,,D*45
$GPVTG,62.11,T,,M,0.19,N,0.3,K,D*37
$GPGGA,053715.000,3518.2316,N,08930.0809,W,2,08,1.7,90.7,M,-30.4,M,1.8,0000*7F
$GPGSA,A,3,22,26,31,18,14,21,12,30,,,,,2.9,1.7,2.4*30
$GPRMC,053715.000,A,3518.2316,N,08930.0809,W,0.08,310.50,071109,,,D*77
$GPVTG,310.50,T,,M,0.08,N,0.1,K,D*06
$GPGGA,053716.000,3518.2317,N,08930.0809,W,2,08,1.7,90.6,M,-30.4,M,2.8,0000*7F
$GPGSA,A,3,22,26,31,18,14,21,12,30,,,,,2.9,1.7,2.4*30
$GPRMC,053716.000,A,3518.2317,N,08930.0809,W,0.09,45.16,071109,,,D*45
$GPVTG,45.16,T,,M,0.09,N,0.2,K,D*35
$GPGGA,053717.000,3518.2317,N,08930.0809,W,2,08,1.7,90.3,M,-30.4,M,3.8,0000*7A
$GPGSA,A,3,22,26,31,18,14,21,12,30,,,,,2.9,1.7,2.4*30
$GPRMC,053717.000,A,3518.2317,N,08930.0809,W,0.16,37.81,071109,,,D*41
$GPVTG,37.81,T,,M,0.16,N,0.3,K,D*31
$GPGGA,053718.000,3518.2318,N,08930.0809,W,2,08,1.7,90.2,M,-30.4,M,1.8,0000*79
$GPGSA,A,3,22,26,31,18,14,21,12,30,,,,,2.9,1.7,2.4*30
$GPGSV,3,1,12,22,74,058,34,14,65,321,26,26,58,023,36,18,42,106,37*72
$GPGSV,3,2,12,31,25,203,36,30,19,119,34,09,17,040,17,12,17,081,21*7D
$GPGSV,3,3,12,21,11,165,32,27,08,038,,19,06,270,24,11,02,321,*73
$GPRMC,053718.000,A,3518.2318,N,08930.0809,W,0.08,36.68,071109,,,D*48
$GPVTG,36.68,T,,M,0.08,N,0.2,K,D*39
$GPGGA,053719.000,3518.2318,N,08930.0809,W,2,08,1.7,90.2,M,-30.4,M,1.8,0000*78
$GPGSA,A,3,22,26,31,18,14,21,12,30,,,,,2.9,1.7,2.4*30
$GPRMC,053719.000,A,3518.2318,N,08930.0809,W,0.12,32.99,071109,,,D*48
$GPVTG,32.99,T,,M,0.12,N,0.2,K,D*38
$GPGGA,053720.000,3518.2318,N,08930.0809,W,2,08,1.7,90.2,M,-30.4,M,1.8,0000*72
$GPGSA,A,3,22,26,31,18,14,21,12,30,,,,,2.9,1.7,2.4*30
$GPRMC,053720.000,A,3518.2318,N,08930.0809,W,0.09,17.96,071109,,,D*40
$GPVTG,17.96,T,,M,0.09,N,0.2,K,D*3A
$GPGGA,053721.000,3518.2318,N,08930.0809,W,2,08,1.7,90.2,M,-30.4,M,2.8,0000*70
$GPGSA,A,3,22,26,31,18,14,21,12,30,,,,,2.9,1.7,2.4*30
$GPRMC,053721.000,A,3518.2318,N,08930.0809,W,0.08,28.56,071109,,,D*40
$GPVTG,28.56,T,,M,0.08,N,0.2,K,D*3B
$GPGGA,053722.000,3518.2318,N,08930.0809,W,2,08,1.7,90.2,M,-30.4,M,3.8,0000*72
$GPGSA,A,3,22,26,31,18,14,21,12,30,,,,,2.9,1.7,2.4*30
$GPRMC,053722.000,A,3518.2318,N,08930.0809,W,0.08,40.55,071109,,,D*4E
$GPVTG,40.55,T,,M,0.08,N,0.1,K,D*35
$GPGGA,053723.000,3518.2318,N,08930.0809,W,2,08,1.7,90.1,M,-30.4,M,1.8,0000*72
$GPGSA,A,3,22,26,31,18,14,21,12,30,,,,,2.9,1.7,2.4*30
$GPGSV,3,1,12,22,74,058,34,14,65,321,26,26,58,023,36,18,42,106,37*72
$GPGSV,3,2,12,31,25,203,36,30,19,119,35,09,17,040,17,12,17,081,23*7E
$GPGSV,3,3,12,21,11,165,33,27,08,038,,19,06,270,24,11,02,321,*72
$GPRMC,053723.000,A,3518.2318,N,08930.0809,W,0.19,58.18,071109,,,D*4F
$GPVTG,58.18,T,,M,0.19,N,0.4,K,D*30
$GPGGA,053724.000,3518.2319,N,08930.0809,W,2,08,1.7,89.9,M,-30.4,M,1.8,0000*74
$GPGSA,A,3,22,26,31,18,14,21,12,30,,,,,2.9,1.7,2.4*30
$GPRMC,053724.000,A,3518.2319,N,08930.0809,W,0.20,46.66,071109,,,D*45
$GPVTG,46.66,T,,M,0.20,N,0.4,K,D*3C
$GPGGA,053725.000,3518.2320,N,08930.0809,W,2,08,1.7,89.7,M,-30.4,M,1.8,0000*71
$GPGSA,A,3,22,26,31,18,14,21,12,30,,,,,2.9,1.7,2.4*30
$GPRMC,053725.000,A,3518.2320,N,08930.0809,W,0.20,47.39,071109,,,D*45
$GPVTG,47.39,T,,M,0.20,N,0.4,K,D*37
$GPGGA,053726.000,3518.2320,N,08930.0809,W,2,08,1.7,89.5,M,-30.4,M,1.8,0000*70
$GPGSA,A,3,22,26,31,18,14,21,12,30,,,,,2.9,1.7,2.4*30
$GPRMC,053726.000,A,3518.2320,N,08930.0809,W,0.17,13.05,071109,,,D*4C
$GPVTG,13.05,T,,M,0.17,N,0.3,K,D*3A
$GPGGA,053727.000,3518.2321,N,08930.0809,W,2,08,1.7,89.3,M,-30.4,M,2.8,0000*75
$GPGSA,A,3,22,26,31,18,14,21,12,30,,,,,2.9,1.7,2.4*30
$GPRMC,053727.000,A,3518.2321,N,08930.0809,W,0.19,22.81,071109,,,D*4C
$GPVTG,22.81,T,,M,0.19,N,0.3,K,D*3A
$GPGGA,053728.000,3518.2321,N,08930.0809,W,2,08,1.7,89.2,M,-30.4,M,3.8,0000*7A
$GPGSA,A,3,22,26,31,18,14,21,12,30,,,,,2.9,1.7,2.4*30
$GPGSV,3,1,12,22,74,058,34,14,65,321,25,26,58,023,35,18,42,106,37*72
$GPGSV,3,2,12,31,25,203,36,30,19,119,35,09,17,040,18,12,17,081,23*71
$GPGSV,3,3,12,21,11,165,33,27,08,038,,19,06,270,24,11,02,321,*72
$GPRMC,053728.000,A,3518.2321,N,08930.0809,W,0.16,336.61,071109,,,D*74
$GPVTG,336.61,T,,M,0.16,N,0.3,K,D*0D
$GPGGA,053729.000,3518.2322,N,08930.0810,W,2,08,1.7,89.1,M,-30.4,M,4.8,0000*74
$GPGSA,A,3,22,26,31,18,14,21,12,30,,,,,2.9,1.7,2.4*30
$GPRMC,053729.000,A,3518.2322,N,08930.0810,W,0.17,6.53,071109,,,D*7E
$GPVTG,6.53,T,,M,0.17,N,0.3,K,D*0D
$GPGGA,053730.000,3518.2322,N,08930.0810,W,2,08,1.7,88.9,M,-30.4,M,1.8,0000*70
$GPGSA,A,3,22,26,31,18,14,21,12,30,,,,,2.9,1.7,2.4*30
$GPRMC,053730.000,A,3518.2322,N,08930.0810,W,0.16,14.08,071109,,,D*4A
$GPVTG,14.08,T,,M,0.16,N,0.3,K,D*31
$GPGGA,053731.000,3518.2322,N,08930.0810,W,2,08,1.7,89.0,M,-30.4,M,1.8,0000*79
$GPGSA,A,3,22,26,31,18,14,21,12,30,,,,,2.9,1.7,2.4*30
$GPRMC,053731.000,A,3518.2322,N,08930.0810,W,0.10,62.28,071109,,,D*4E
$GPVTG,62.28,T,,M,0.10,N,0.2,K,D*35
$GPGGA,053732.000,3518.2322,N,08930.0810,W,2,08,1.7,89.1,M,-30.4,M,1.8,0000*7B
$GPGSA,A,3,22,26,31,18,14,21,12,30,,,,,2.9,1.7,2.4*30
$GPRMC,053732.000,A,3518.2322,N,08930.0810,W,0.01,88.60,071109,,,D*45
$GPVTG,88.60,T,,M,0.01,N,0.0,K,D*3F
$GPGGA,053733.000,3518.2322,N,08930.0810,W,2,08,1.7,89.0,M,-30.4,M,1.8,0000*7B
$GPGSA,A,3,22,26,31,18,14,21,12,30,,,,,2.9,1.7,2.4*30
$GPGSV,3,1,12,22,74,058,34,14,65,321,24,26,58,023,35,18,42,106,37*73
$GPGSV,3,2,12,31,25,203,36,30,19,119,35,09,17,040,18,12,17,081,24*76
$GPGSV,3,3,12,21,11,165,34,27,08,038,,19,06,270,25,11,02,321,*74
$GPVTG,59.84,T,,M,0.14,N,0.3,K,D*3E
$GPGGA,053734.000,3518.2322,N,08930.0809,W,2,08,1.7,88.9,M,-30.4,M,1.8,0000*7C
$GPGSA,A,3,22,26,31,18,14,21,12,30,,,,,2.9,1.7,2.4*30
$GPRMC,053734.000,A,3518.2322,N,08930.0809,W,0.27,74.08,071109,,,D*42
$GPVTG,74.08,T,,M,0.27,N,0.5,K,D*33
$GPGGA,053735.000,3518.2322,N,08930.0809,W,2,08,1.7,88.8,M,-30.4,M,2.8,0000*7F
$GPGSA,A,3,22,26,31,18,14,21,12,30,,,,,2.9,1.7,2.4*30
$GPRMC,053735.000,A,3518.2322,N,08930.0809,W,0.20,97.94,071109,,,D*4C
$GPVTG,97.94,T,,M,0.20,N,0.4,K,D*3D
$GPGGA,053736.000,3518.2322,N,08930.0808,W,2,08,1.7,88.9,M,-30.4,M,1.8,0000*7F
$GPGSA,A,3,22,26,31,18,14,21,12,30,,,,,2.9,1.7,2.4*30
$GPRMC,053736.000,A,3518.2322,N,08930.0808,W,0.25,80.43,071109,,,D*47
$GPVTG,80.43,T,,M,0.25,N,0.5,K,D*35
$GPGGA,053737.000,3518.2322,N,08930.0808,W,2,08,1.7,88.6,M,-30.4,M,1.8,0000*71
$GPGSA,A,3,22,26,31,18,14,21,12,30,,,,,2.9,1.7,2.4*30
$GPRMC,053737.000,A,3518.2322,N,08930.0808,W,0.21,347.49,071109,,,D*70
$GPVTG,347.49,T,,M,0.21,N,0.4,K,D*02
$GPGGA,053738.000,3518.2322,N,08930.0809,W,2,08,1.7,88.9,M,-30.4,M,1.8,0000*70
$GPGSA,A,3,22,26,31,18,14,21,12,30,,,,,2.9,1.7,2.4*30
$GPGSV,3,1,12,22,74,058,34,14,65,321,24,26,58,023,35,18,42,106,37*73
$GPGSV,3,2,12,31,25,203,35,30,19,119,35,09,17,040,19,12,17,081,24*74
$GPGSV,3,3,12,21,11,165,25,27,08,038,,19,06,270,25,11,02,321,*74
$GPRMC,053738.000,A,3518.2322,N,08930.0809,W,0.32,301.35,071109,,,D*75
$GPVTG,301.35,T,,M,0.32,N,0.6,K,D*0B
$GPGGA,053739.000,3518.2323,N,08930.0810,W,2,07,1.7,89.0,M,-30.4,M,2.8,0000*7C
$GPGSA,A,3,22,26,31,18,14,12,30,,,,,,3.0,1.7,2.5*3A
$GPRMC,053739.000,A,3518.2323,N,08930.0810,W,0.18,312.33,071109,,,D*71
$GPVTG,312.33,T,,M,0.18,N,0.3,K,D*02
$GPGGA,053740.000,3518.2324,N,08930.0812,W,2,07,1.7,88.9,M,-30.4,M,3.8,0000*7E
$GPGSA,A,3,22,26,31,18,14,12,30,,,,,,3.0,1.7,2.5*3A
$GPRMC,053740.000,A,3518.2324,N,08930.0812,W,0.15,4.93,071109,,,D*79
$GPVTG,4.93,T,,M,0.15,N,0.3,K,D*01
$GPGGA,053741.000,3518.2325,N,08930.0813,W,2,07,1.7,89.0,M,-30.4,M,4.8,0000*70
$GPGSA,A,3,22,26,31,18,14,12,30,,,,,,3.0,1.7,2.5*3A
$GPRMC,053741.000,A,3518.2325,N,08930.0813,W,0.11,329.50,071109,,,D*7F
$GPVTG,329.50,T,,M,0.11,N,0.2,K,D*07
$GPGGA,053742.000,3518.2325,N,08930.0814,W,2,08,1.7,89.1,M,-30.4,M,1.8,0000*7F
$GPGSA,A,3,22,26,31,18,14,21,12,30,,,,,2.9,1.7,2.4*30
$GPRMC,053742.000,A,3518.2325,N,08930.0814,W,0.18,227.93,071109,,,D*72
$GPVTG,227.93,T,,M,0.18,N,0.3,K,D*0F
$GPGGA,053743.000,3518.2326,N,08930.0815,W,2,08,1.7,88.8,M,-30.4,M,1.8,0000*74
$GPGSA,A,3,22,26,31,18,14,21,12,30,,,,,2.9,1.7,2.4*30
$GPGSV,3,1,12,22,74,058,34,14,65,321,28,26,58,023,35,18,42,106,38*70
$GPGSV,3,2,12,31,25,203,34,30,19,119,35,09,17,040,19,12,17,081,19*7B
$GPGSV,3,3,12,21,11,165,21,27,08,038,,19,06,270,27,11,02,321,*72
$GPRMC,053743.000,A,3518.2326,N,08930.0815,W,0.12,90.13,071109,,,D*4D
$GPVTG,90.13,T,,M,0.12,N,0.2,K,D*32
$GPGGA,053744.000,3518.2327,N,08930.0816,W,2,08,1.7,88.6,M,-30.4,M,1.8,0000*7F
$GPGSA,A,3,22,26,31,18,14,21,12,30,,,,,2.9,1.7,2.4*30
$GPRMC,053744.000,A,3518.2327,N,08930.0816,W,0.28,41.34,071109,,,D*48
$GPVTG,41.34,T,,M,0.28,N,0.5,K,D*35
$GPGGA,053745.000,3518.2329,N,08930.0817,W,2,08,1.7,88.3,M,-30.4,M,2.8,0000*77
$GPGSA,A,3,22,26,31,18,14,21,12,30,,,,,2.9,1.7,2.4*30
$GPRMC,053745.000,A,3518.2329,N,08930.0817,W,0.13,51.72,071109,,,D*4D
$GPVTG,51.72,T,,M,0.13,N,0.2,K,D*39
$GPGGA,053746.000,3518.2328,N,08930.0816,W,2,08,1.7,88.7,M,-30.4,M,3.8,0000*71
$GPGSA,A,3,22,26,31,18,14,21,12,30,,,,,2.9,1.7,2.4*30
$GPRMC,053746.000,A,3518.2328,N,08930.0816,W,0.11,1.17,071109,,,D*7A
$GPVTG,1.17,T,,M,0.11,N,0.2,K,D*0D
$GPGGA,053747.000,3518.2327,N,08930.0815,W,2,08,1.7,89.1,M,-30.4,M,1.8,0000*79
$GPGSA,A,3,22,26,31,18,14,21,12,30,,,,,2.9,1.7,2.4*30
$GPRMC,053747.000,A,3518.2327,N,08930.0815,W,0.05,247.48,071109,,,D*78
$GPVTG,247.48,T,,M,0.05,N,0.1,K,D*01
$GPGGA,053748.000,3518.2327,N,08930.0815,W,2,08,1.7,89.6,M,-30.4,M,1.8,0000*71
$GPGSA,A,3,22,26,31,18,14,21,12,30,,,,,2.9,1.7,2.4*30
$GPGSV,3,1,12,22,74,059,34,14,65,322,28,26,57,024,35,18,42,106,38*7A
$GPGSV,3,2,12,31,25,203,33,30,19,118,35,12,17,081,19,09,16,040,19*7C
$GPGSV,3,3,12,21,11,165,29,27,08,038,,19,06,270,27,11,02,321,*7A
$GPRMC,053748.000,A,3518.2327,N,08930.0815,W,0.05,223.42,071109,,,D*7F
$GPVTG,223.42,T,,M,0.05,N,0.1,K,D*09
$GPGGA,053749.000,3518.2326,N,08930.0815,W,2,08,1.7,89.9,M,-30.4,M,1.8,0000*7E
$GPGSA,A,3,22,26,31,18,14,21,12,30,,,,,2.9,1.7,2.4*30
$GPRMC,053749.000,A,3518.2326,N,08930.0815,W,0.18,205.20,071109,,,D*73
$GPVTG,205.20,T,,M,0.18,N,0.3,K,D*07
$GPGGA,053750.000,3518.2325,N,08930.0815,W,2,08,1.7,90.1,M,-30.4,M,1.8,0000*75
$GPGSA,A,3,22,26,31,18,14,21,12,30,,,,,2.9,1.7,2.4*30
$GPRMC,053750.000,A,3518.2325,N,08930.0815,W,0.10,133.71,071109,,,D*72
$GPVTG,133.71,T,,M,0.10,N,0.2,K,D*0C
$GPGGA,053751.000,3518.2325,N,08930.0814,W,2,08,1.7,90.3,M,-30.4,M,2.8,0000*74
$GPGSA,A,3,22,26,31,18,14,21,12,30,,,,,2.9,1.7,2.4*30
$GPRMC,053751.000,A,3518.2325,N,08930.0814,W,0.07,149.42,071109,,,D*79
$GPVTG,149.42,T,,M,0.07,N,0.1,K,D*04
$GPGGA,053752.000,3518.2325,N,08930.0814,W,2,08,1.7,90.5,M,-30.4,M,3.8,0000*70
$GPGSA,A,3,22,26,31,18,14,21,12,30,,,,,2.9,1.7,2.4*30
$GPRMC,053752.000,A,3518.2325,N,08930.0814,W,0.06,97.29,071109,,,D*44
$GPVTG,97.29,T,,M,0.06,N,0.1,K,D*3A
$GPGGA,053753.000,3518.2326,N,08930.0814,W,2,08,1.7,90.7,M,-30.4,M,4.8,0000*77
$GPGSA,A,3,22,26,31,18,14,21,12,30,,,,,2.9,1.7,2.4*30
$GPGSV,3,1,12,22,74,059,34,14,65,322,28,26,57,024,35,18,42,106,38*7A
$GPGSV,3,2,12,31,25,203,33,30,19,118,36,12,17,081,20,09,16,040,19*75
$GPGSV,3,3,12,21,11,165,29,27,08,038,,19,06,270,29,11,02,321,*74
$GPVTG,107.04,T,,M,0.06,N,0.1,K,D*0D
$GPGGA,053754.000,3518.2325,N,08930.0814,W,2,08,1.7,90.9,M,-30.4,M,1.8,0000*78
$GPGSA,A,3,22,26,31,18,14,21,12,30,,,,,2.9,1.7,2.4*30
$GPRMC,053754.000,A,3518.2325,N,08930.0814,W,0.11,221.50,071109,,,D*75
$GPVTG,221.50,T,,M,0.11,N,0.2,K,D*0E
$GPGGA,053755.000,3518.2325,N,08930.0814,W,2,08,1.7,90.9,M,-30.4,M,1.8,0000*79
$GPGSA,A,3,22,26,31,18,14,21,12,30,,,,,2.9,1.7,2.4*30
$GPRMC,053755.000,A,3518.2325,N,08930.0814,W,0.04,119.69,071109,,,D*72
$GPVTG,119.69,T,,M,0.04,N,0.1,K,D*0B
$GPGGA,053756.000,3518.2325,N,08930.0813,W,2,08,1.7,90.8,M,-30.4,M,1.8,0000*7C
$GPGSA,A,3,22,26,31,18,14,21,12,30,,,,,2.9,1.7,2.4*30
$GPRMC,053756.000,A,3518.2325,N,08930.0813,W,0.12,92.76,071109,,,D*4D
$GPVTG,92.76,T,,M,0.12,N,0.2,K,D*33
$GPGGA,053757.000,3518.2325,N,08930.0813,W,2,08,1.7,90.7,M,-30.4,M,1.8,0000*72
$GPGSA,A,3,22,26,31,18,14,21,12,30,,,,,2.9,1.7,2.4*30
$GPRMC,053757.000,A,3518.2325,N,08930.0813,W,0.12,89.59,071109,,,D*4B
$GPVTG,89.59,T,,M,0.12,N,0.2,K,D*34
$GPGGA,053758.000,3518.2324,N,08930.0812,W,2,08,1.7,90.9,M,-30.4,M,2.8,0000*70
$GPGSA,A,3,22,26,31,18,14,21,12,30,,,,,2.9,1.7,2.4*30
$GPGSV,3,1,12,22,74,059,34,14,65,322,27,26,57,024,35,18,42,106,38*75
$GPGSV,3,2,12,31,25,203,33,30,19,118,35,12,17,081,31,09,16,040,11*7E
$GPGSV,3,3,12,21,11,165,30,27,08,038,,19,06,270,29,11,02,321,*7C
$GPRMC,053758.000,A,3518.2324,N,08930.0812,W,0.12,97.69,071109,,,D*48
$GPVTG,97.69,T,,M,0.12,N,0.2,K,D*38
$GPGGA,053759.000,3518.2324,N,08930.0812,W,2,08,1.7,91.0,M,-30.4,M,3.8,0000*78
$GPGSA,A,3,22,26,31,18,14,21,12,30,,,,,2.9,1.7,2.4*30
$GPRMC,053759.000,A,3518.2324,N,08930.0812,W,0.13,89.40,071109,,,D*4C
$GPVTG,89.40,T,,M,0.13,N,0.2,K,D*3D
$GPGGA,053800.000,3518.2324,N,08930.0812,W,2,08,1.7,91.0,M,-30.4,M,1.8,0000*79
$GPGSA,A,3,22,26,31,18,14,21,12,30,,,,,2.9,1.7,2.4*30
$GPRMC,053800.000,A,3518.2324,N,08930.0812,W,0.10,74.66,071109,,,D*4A
$GPVTG,74.66,T,,M,0.10,N,0.2,K,D*38
$GPGGA,053801.000,3518.2324,N,08930.0811,W,2,08,1.7,90.9,M,-30.4,M,1.8,0000*73
$GPGSA,A,3,22,26,31,18,14,21,12,30,,,,,2.9,1.7,2.4*30
$GPRMC,053801.000,A,3518.2324,N,08930.0811,W,0.09,99.72,071109,,,D*46
$GPVTG,99.72,T,,M,0.09,N,0.2,K,D*36
$GPGGA,053802.000,3518.2324,N,08930.0811,W,2,08,1.7,90.9,M,-30.4,M,1.8,0000*70
$GPGSA,A,3,22,26,31,18,14,21,12,30,,,,,2.9,1.7,2.4*30
$GPRMC,053802.000,A,3518.2324,N,08930.0811,W,0.06,121.23,071109,,,D*7C
$GPVTG,121.23,T,,M,0.06,N,0.1,K,D*0C
$GPGGA,053803.000,3518.2324,N,08930.0811,W,2,08,1.7,90.9,M,-30.4,M,1.8,0000*71
$GPGSA,A,3,22,26,31,18,14,21,12,30,,,,,2.9,1.7,2.4*30
$GPGSV,3,1,12,22,74,059,34,14,65,322,27,26,57,024,35,18,42,106,38*75
$GPGSV,3,2,12,31,25,203,33,30,19,118,35,12,17,081,31,09,16,040,*7E
$GPGSV,3,3,12,21,11,165,30,27,08,038,,19,06,270,29,11,02,321,*7C
$GPRMC,053803.000,A,3518.2324,N,08930.0811,W,0.01,353.68,071109,,,D*72
$GPVTG,353.68,T,,M,0.01,N,0.0,K,D*02
$GPGGA,053804.000,3518.2324,N,08930.0812,W,2,08,1.7,90.9,M,-30.4,M,1.8,0000*75
$GPGSA,A,3,22,26,31,18,14,21,12,30,,,,,2.9,1.7,2.4*30
$GPRMC,053804.000,A,3518.2324,N,08930.0812,W,0.02,225.08,071109,,,D*73
$GPVTG,225.08,T,,M,0.02,N,0.0,K,D*07
$GPGGA,053805.000,3518.2324,N,08930.0812,W,2,08,1.7,90.8,M,-30.4,M,2.8,0000*76
$GPGSA,A,3,22,26,31,18,14,21,12,30,,,,,2.9,1.7,2.4*30
$GPRMC,053805.000,A,3518.2324,N,08930.0812,W,0.02,132.02,071109,,,D*7D
$GPVTG,132.02,T,,M,0.02,N,0.0,K,D*08
$GPGGA,053806.000,3518.2324,N,08930.0812,W,2,08,1.7,90.8,M,-30.4,M,1.8,0000*76
$GPGSA,A,3,22,26,31,18,14,21,12,30,,,,,2.9,1.7,2.4*30
$GPRMC,053806.000,A,3518.2324,N,08930.0812,W,0.01,85.78,071109,,,D*4D
$GPVTG,85.78,T,,M,0.01,N,0.0,K,D*3B
$GPGGA,053807.000,3518.2323,N,08930.0812,W,2,08,1.7,90.8,M,-30.4,M,1.8,0000*70
$GPGSA,A,3,22,26,31,18,14,21,12,30,,,,,2.9,1.7,2.4*30
$GPRMC,053807.000,A,3518.2323,N,08930.0812,W,0.06,71.42,071109,,,D*4E
$GPVTG,71.42,T,,M,0.06,N,0.1,K,D*3F
$GPGGA,053808.000,3518.2324,N,08930.0811,W,2,08,1.7,90.9,M,-30.4,M,1.8,0000*7A
$GPGSA,A,3,22,26,31,18,14,21,12,30,,,,,2.9,1.7,2.4*30
$GPGSV,3,1,12,22,74,059,33,14,65,322,26,26,57,024,35,18,42,106,38*73
$GPGSV,3,2,12,31,25,203,33,30,19,118,35,12,17,081,31,09,16,040,*7E
$GPGSV,3,3,12,21,11,165,31,27,08,038,,19,06,270,29,11,02,321,*7D
$GPRMC,053808.000,A,3518.2324,N,08930.0811,W,0.09,74.19,071109,,,D*41
$GPVTG,74.19,T,,M,0.09,N,0.2,K,D*38
$GPGGA,053809.000,3518.2323,N,08930.0811,W,2,08,1.7,90.9,M,-30.4,M,2.8,0000*7F
$GPGSA,A,3,22,26,31,18,14,21,12,30,,,,,2.9,1.7,2.4*30
$GPRMC,053809.000,A,3518.2323,N,08930.0811,W,0.11,82.39,071109,,,D*45
$GPVTG,82.39,T,,M,0.11,N,0.2,K,D*3A
$GPGGA,053810.000,3518.2324,N,08930.0810,W,2,08,1.7,90.9,M,-30.4,M,3.8,0000*70
$GPGSA,A,3,22,26,31,18,14,21,12,30,,,,,2.9,1.7,2.4*30
$GPRMC,053810.000,A,3518.2324,N,08930.0810,W,0.14,71.99,071109,,,D*48
$GPVTG,71.99,T,,M,0.14,N,0.3,K,D*38
$GPGGA,053811.000,3518.2324,N,08930.0810,W,2,08,1.7,91.0,M,-30.4,M,4.8,0000*7E
$GPGSA,A,3,22,26,31,18,14,21,12,30,,,,,2.9,1.7,2.4*30
$GPRMC,053811.000,A,3518.2324,N,08930.0810,W,0.12,92.67,071109,,,D*43
$GPVTG,92.67,T,,M,0.12,N,0.2,K,D*33
$GPGGA,053812.000,3518.2324,N,08930.0810,W,2,08,1.7,91.0,M,-30.4,M,0.8,0000*79
$GPGSA,A,3,22,26,31,18,14,21,12,30,,,,,2.9,1.7,2.4*30
$GPRMC,053812.000,A,3518.2324,N,08930.0810,W,0.11,76.34,071109,,,D*4F
$GPVTG,76.34,T,,M,0.11,N,0.2,K,D*3C
$GPGGA,053813.000,3518.2323,N,08930.0809,W,2,08,1.7,91.1,M,-30.4,M,1.8,0000*77
$GPGSA,A,3,22,26,31,18,14,21,12,30,,,,,2.9,1.7,2.4*30
$GPGSV,3,1,12,22,74,060,33,14,65,322,26,26,57,024,35,18,42,106,38*79
$GPGSV,3,2,12,31,25,203,34,30,19,118,35,12,17,080,31,09,16,040,*78
$GPGSV,3,3,12,21,10,165,30,27,08,038,,19,06,270,30,11,02,321,*75
$GPRMC,053813.000,A,3518.2323,N,08930.0809,W,0.09,77.14,071109,,,D*4B
$GPGGA,053814.000,3518.2323,N,08930.0809,W,2,08,1.7,91.2,M,-30.4,M,1.8,0000*73
$GPGSA,A,3,22,26,31,18,14,21,12,30,,,,,2.9,1.7,2.4*30
$GPRMC,053814.000,A,3518.2323,N,08930.0809,W,0.05,49.85,071109,,,D*45
$GPVTG,49.85,T,,M,0.05,N,0.1,K,D*3C
$GPGGA,053815.000,3518.2323,N,08930.0809,W,2,08,1.7,91.3,M,-30.4,M,2.8,0000*70
$GPGSA,A,3,22,26,31,18,14,21,12,30,,,,,2.9,1.7,2.4*30
$GPRMC,053815.000,A,3518.2323,N,08930.0809,W,0.04,47.69,071109,,,D*49
$GPVTG,47.69,T,,M,0.04,N,0.1,K,D*31
$GPGGA,053816.000,3518.2323,N,08930.0809,W,2,08,1.7,91.4,M,-30.4,M,3.8,0000*75
$GPGSA,A,3,22,26,31,18,14,21,12,30,,,,,2.9,1.7,2.4*30
$GPRMC,053816.000,A,3518.2323,N,08930.0809,W,0.04,86.80,071109,,,D*40
$GPVTG,86.80,T,,M,0.04,N,0.1,K,D*3B
$GPGGA,053817.000,3518.2323,N,08930.0809,W,2,08,1.7,91.4,M,-30.4,M,1.8,0000*76
$GPGSA,A,3,22,26,31,18,14,21,12,30,,,,,2.9,1.7,2.4*30
$GPRMC,053817.000,A,3518.2323,N,08930.0809,W,0.05,38.43,071109,,,D*4A
$GPVTG,38.43,T,,M,0.05,N,0.1,K,D*30
$GPGGA,053818.000,3518.2323,N,08930.0809,W,2,08,1.7,91.5,M,-30.4,M,1.8,0000*78
$GPGSA,A,3,22,26,31,18,14,21,12,30,,,,,2.9,1.7,2.4*30
$GPGSV,3,1,12,22,74,060,33,14,65,323,26,26,57,024,35,18,42,106,38*78
$GPGSV,3,2,12,31,25,203,34,30,19,118,35,12,17,080,31,09,16,040,*78
$GPGSV,3,3,12,21,10,165,30,27,08,038,,19,06,270,30,11,02,321,*75
$GPRMC,053818.000,A,3518.2323,N,08930.0809,W,0.05,88.03,071109,,,D*4A
$GPVTG,88.03,T,,M,0.05,N,0.1,K,D*3F
$GPGGA,053819.000,3518.2323,N,08930.0809,W,2,08,1.7,91.5,M,-30.4,M,1.8,0000*79
$GPGSA,A,3,22,26,31,18,14,21,12,30,,,,,2.9,1.7,2.4*30
$GPRMC,053819.000,A,3518.2323,N,08930.0809,W,0.08,144.01,071109,,,D*75
$GPVTG,144.01,T,,M,0.08,N,0.1,K,D*01
$GPGGA,053820.000,3518.2323,N,08930.0809,W,2,08,1.7,91.4,M,-30.4,M,1.8,0000*72
$GPGSA,A,3,22,26,31,18,14,21,12,30,,,,,2.9,1.7,2.4*30
$GPRMC,053820.000,A,3518.2323,N,08930.0809,W,0.13,47.12,071109,,,D*45
$GPVTG,47.12,T,,M,0.13,N,0.2,K,D*38
$GPGGA,053821.000,3518.2323,N,08930.0809,W,2,08,1.7,91.6,M,-30.4,M,1.8,0000*71
$GPGSA,A,3,22,26,31,18,14,21,12,30,,,,,2.9,1.7,2.4*30
$GPRMC,053821.000,A,3518.2323,N,08930.0809,W,0.15,34.10,071109,,,D*44
$GPVTG,34.10,T,,M,0.15,N,0.3,K,D*39
$GPGGA,053822.000,3518.2323,N,08930.0809,W,2,08,1.7,91.7,M,-30.4,M,2.8,0000*70
$GPGSA,A,3,22,26,31,18,14,21,12,30,,,,,2.9,1.7,2.4*30
$GPRMC,053822.000,A,3518.2323,N,08930.0809,W,0.10,84.39,071109,,,D*42
$GPVTG,84.39,T,,M,0.10,N,0.2,K,D*3D
$GPGGA,053823.000,3518.2322,N,08930.0809,W,2,08,1.7,91.8,M,-30.4,M,3.8,0000*7E
$GPGSA,A,3,22,26,31,18,14,21,12,30,,,,,2.9,1.7,2.4*30
$GPGSV,3,1,12,22,74,060,33,14,65,323,26,26,57,024,35,18,42,106,37*77
$GPGSV,3,2,12,31,25,203,34,30,19,118,35,12,17,080,36,09,16,040,18*76
$GPGSV,3,3,12,21,10,165,30,27,08,038,,19,06,270,30,11,02,321,*75
$GPRMC,053823.000,A,3518.2322,N,08930.0809,W,0.08,86.24,071109,,,D*45
$GPVTG,86.24,T,,M,0.08,N,0.2,K,D*3A
$GPGGA,053824.000,3518.2322,N,08930.0808,W,2,08,1.7,92.0,M,-30.4,M,1.8,0000*71
$GPGSA,A,3,22,26,31,18,14,21,12,30,,,,,2.9,1.7,2.4*30
$GPRMC,053824.000,A,3518.2322,N,08930.0808,W,0.10,85.82,071109,,,D*45
$GPVTG,85.82,T,,M,0.10,N,0.2,K,D*3C
$GPGGA,053825.000,3518.2322,N,08930.0808,W,2,08,1.6,92.0,M,-30.4,M,1.8,0000*71
$GPGSA,A,3,22,26,31,18,14,21,12,30,,,,,2.9,1.6,2.4*31
$GPRMC,053825.000,A,3518.2322,N,08930.0808,W,0.07,94.86,071109,,,D*46
$GPVTG,94.86,T,,M,0.07,N,0.1,K,D*3D
$GPGGA,053826.000,3518.2321,N,08930.0808,W,2,08,1.6,92.1,M,-30.4,M,1.8,0000*70
$GPGSA,A,3,22,26,31,18,14,21,12,30,,,,,2.9,1.6,2.4*31
$GPRMC,053826.000,A,3518.2321,N,08930.0808,W,0.02,75.70,071109,,,D*45
$GPVTG,75.70,T,,M,0.02,N,0.0,K,D*3F
$GPGGA,053827.000,3518.2321,N,08930.0808,W,2,08,1.6,92.1,M,-30.4,M,1.8,0000*71
$GPGSA,A,3,22,26,31,18,14,21,12,30,,,,,2.9,1.6,2.4*31
$GPRMC,053827.000,A,3518.2321,N,08930.0808,W,0.03,339.10,071109,,,D*78
$GPVTG,339.10,T,,M,0.03,N,0.1,K,D*02
$GPGGA,053828.000,3518.2321,N,08930.0809,W,2,08,1.6,92.1,M,-30.4,M,2.8,0000*7C
$GPGSA,A,3,22,26,31,18,14,21,12,30,,,,,2.9,1.6,2.4*31
$GPGSV,3,1,12,22,74,060,33,14,65,323,26,26,57,024,35,18,42,106,37*77
$GPGSV,3,2,12,31,25,203,34,30,19,118,36,12,17,080,37,09,16,040,17*7B
$GPGSV,3,3,12,21,10,165,30,27,08,038,,19,06,270,29,11,02,321,*7D
$GPRMC,053828.000,A,3518.2321,N,08930.0809,W,0.01,333.47,071109,,,D*7C
$GPVTG,333.47,T,,M,0.01,N,0.0,K,D*09
$GPGGA,053829.000,3518.2321,N,08930.0809,W,2,08,1.6,92.1,M,-30.4,M,3.8,0000*7C
$GPGSA,A,3,22,26,31,18,14,21,12,30,,,,,2.9,1.6,2.4*31
$GPRMC,053829.000,A,3518.2321,N,08930.0809,W,0.04,3.69,071109,,,D*74
$GPVTG,3.69,T,,M,0.04,N,0.1,K,D*01
$GPGGA,053830.000,3518.2321,N,08930.0809,W,2,08,1.6,92.1,M,-30.4,M,1.8,0000*76
$GPGSA,A,3,22,26,31,18,14,21,12,30,,,,,2.9,1.6,2.4*31
$GPRMC,053830.000,A,3518.2321,N,08930.0809,W,0.02,270.00,071109,,,D*73
$GPVTG,270.00,T,,M,0.02,N,0.0,K,D*0F
$GPGGA,053831.000,3518.2321,N,08930.0809,W,2,08,1.6,92.2,M,-30.4,M,1.8,0000*74
$GPGSA,A,3,22,26,31,18,14,21,12,30,,,,,2.9,1.6,2.4*31
$GPRMC,053831.000,A,3518.2321,N,08930.0809,W,0.13,321.65,071109,,,D*74
$GPVTG,321.65,T,,M,0.13,N,0.2,K,D*0B
$GPGGA,053832.000,3518.2320,N,08930.0809,W,2,08,1.6,92.3,M,-30.4,M,1.8,0000*77
$GPGSA,A,3,22,26,31,18,14,21,12,30,,,,,2.9,1.6,2.4*31
$GPRMC,053832.000,A,3518.2320,N,08930.0809,W,0.07,7.95,071109,,,D*7B
$GPVTG,7.95,T,,M,0.07,N,0.1,K,D*05
$GPGGA,053833.000,3518.2320,N,08930.0808,W,2,08,1.6,92.5,M,-30.4,M,2.8,0000*72
$GPGSA,A,3,22,26,31,18,14,21,12,30,,,,,2.9,1.6,2.4*31
$GPGSV,3,1,12,22,74,060,34,14,65,323,26,26,57,024,36,18,42,106,36*72
$GPGSV,3,2,12,31,25,203,34,30,19,118,36,12,17,080,38,09,16,040,16*75
$GPGSV,3,3,12,21,10,165,33,27,08,038,,19,06,270,28,11,02,321,*7F
$GPVTG,25.98,T,,M,0.08,N,0.1,K,D*37
$GPGGA,053834.000,3518.2320,N,08930.0808,W,2,08,1.6,92.6,M,-30.4,M,3.8,0000*77
$GPGSA,A,3,22,26,31,18,14,21,12,30,,,,,2.9,1.6,2.4*31
$GPRMC,053834.000,A,3518.2320,N,08930.0808,W,0.11,335.35,071109,,,D*73
$GPVTG,335.35,T,,M,0.11,N,0.2,K,D*09
$GPGGA,053835.000,3518.2320,N,08930.0808,W,2,08,1.6,92.8,M,-30.4,M,4.8,0000*7F
$GPGSA,A,3,22,26,31,18,14,21,12,30,,,,,2.9,1.6,2.4*31
$GPRMC,053835.000,A,3518.2320,N,08930.0808,W,0.07,47.73,071109,,,D*41
$GPVTG,47.73,T,,M,0.07,N,0.1,K,D*39
$GPGGA,053836.000,3518.2320,N,08930.0808,W,2,08,1.6,92.9,M,-30.4,M,1.8,0000*78
$GPGSA,A,3,22,26,31,18,14,21,12,30,,,,,2.9,1.6,2.4*31
$GPRMC,053836.000,A,3518.2320,N,08930.0808,W,0.07,59.44,071109,,,D*49
$GPVTG,59.44,T,,M,0.07,N,0.1,K,D*32
$GPGGA,053837.000,3518.2320,N,08930.0807,W,2,08,1.6,92.9,M,-30.4,M,1.8,0000*76
$GPGSA,A,3,22,26,31,18,14,21,12,30,,,,,2.9,1.6,2.4*31
$GPRMC,053837.000,A,3518.2320,N,08930.0807,W,0.06,101.41,071109,,,D*7F
$GPVTG,101.41,T,,M,0.06,N,0.1,K,D*0A
$GPGGA,053838.000,3518.2320,N,08930.0807,W,2,08,1.6,92.8,M,-30.4,M,1.8,0000*78
$GPGSA,A,3,22,26,31,18,14,21,12,30,,,,,2.9,1.6,2.4*31
$GPGSV,3,1,12,22,74,060,34,14,65,323,27,26,57,024,36,18,42,106,36*73
$GPGSV,3,2,12,31,25,203,34,30,19,118,36,12,17,080,37,09,16,040,17*7B
$GPGSV,3,3,12,21,10,165,33,27,08,038,,19,06,270,28,11,02,321,*7F
$GPRMC,053838.000,A,3518.2320,N,08930.0807,W,0.06,120.51,071109,,,D*72
$GPVTG,120.51,T,,M,0.06,N,0.1,K,D*08
$GPGGA,053839.000,3518.2320,N,08930.0807,W,2,08,1.6,92.8,M,-30.4,M,2.8,0000*7A
$GPGSA,A,3,22,26,31,18,14,21,12,30,,,,,2.9,1.6,2.4*31
$GPRMC,053839.000,A,3518.2320,N,08930.0807,W,0.05,146.32,071109,,,D*75
$GPVTG,146.32,T,,M,0.05,N,0.1,K,D*0E
$GPGGA,053840.000,3518.2320,N,08930.0807,W,2,08,1.6,92.8,M,-30.4,M,1.8,0000*77
$GPGSA,A,3,22,26,31,18,14,21,12,30,,,,,2.9,1.6,2.4*31
$GPRMC,053840.000,A,3518.2320,N,08930.0807,W,0.03,119.14,071109,,,D*73
$GPVTG,119.14,T,,M,0.03,N,0.0,K,D*07
$GPGGA,053841.000,3518.2319,N,08930.0807,W,2,08,1.6,92.7,M,-30.4,M,2.8,0000*70
$GPGSA,A,3,22,26,31,18,14,21,12,30,,,,,2.9,1.6,2.4*31
$GPRMC,053841.000,A,3518.2319,N,08930.0807,W,0.06,133.27,071109,,,D*75
$GPVTG,133.27,T,,M,0.06,N,0.1,K,D*0B
$GPGGA,053842.000,3518.2319,N,08930.0807,W,2,08,1.6,92.7,M,-30.4,M,1.8,0000*70
$GPGSA,A,3,22,26,31,18,14,21,12,30,,,,,2.9,1.6,2.4*31
$GPRMC,053842.000,A,3518.2319,N,08930.0807,W,0.06,123.35,071109,,,D*74
$GPVTG,123.35,T,,M,0.06,N,0.1,K,D*09
$GPGGA,053843.000,3518.2319,N,08930.0806,W,2,08,1.6,92.7,M,-30.4,M,1.8,0000*70
$GPGSA,A,3,22,26,31,18,14,21,12,30,,,,,2.9,1.6,2.4*31
$GPGSV,3,1,12,22,74,061,34,14,65,323,27,26,57,024,36,18,41,106,36*71
$GPGSV,3,2,12,31,25,203,33,30,20,118,35,12,17,080,37,09,16,040,17*75
$GPGSV,3,3,12,21,10,165,33,27,07,038,,19,06,270,28,11,02,321,*70
$GPRMC,053843.000,A,3518.2319,N,08930.0806,W,0.06,34.16,071109,,,D*42
$GPVTG,34.16,T,,M,0.06,N,0.1,K,D*3F
$GPGGA,053844.000,3518.2319,N,08930.0806,W,2,08,1.6,92.8,M,-30.4,M,0.8,0000*79
$GPGSA,A,3,22,26,31,18,14,21,12,30,,,,,2.9,1.6,2.4*31
$GPRMC,053844.000,A,3518.2319,N,08930.0806,W,0.09,42.66,071109,,,D*4C
$GPVTG,42.66,T,,M,0.09,N,0.2,K,D*35
$GPGGA,053845.000,3518.2319,N,08930.0806,W,2,08,1.6,92.9,M,-30.4,M,1.8,0000*78
$GPGSA,A,3,22,26,31,18,14,21,12,30,,,,,2.9,1.6,2.4*31
$GPRMC,053845.000,A,3518.2319,N,08930.0806,W,0.10,29.43,071109,,,D*4F
$GPVTG,29.43,T,,M,0.10,N,0.2,K,D*37
$GPGGA,053846.000,3518.2319,N,08930.0805,W,2,08,1.6,92.9,M,-30.4,M,2.8,0000*7B
$GPGSA,A,3,22,26,31,18,14,21,12,30,,,,,2.9,1.6,2.4*31
$GPRMC,053846.000,A,3518.2319,N,08930.0805,W,0.09,48.95,071109,,,D*4B
$GPVTG,48.95,T,,M,0.09,N,0.2,K,D*33
$GPGGA,053847.000,3518.2319,N,08930.0805,W,2,08,1.6,93.0,M,-30.4,M,3.8,0000*73
$GPGSA,A,3,22,26,31,18,14,21,12,30,,,,,2.9,1.6,2.4*31
$GPRMC,053847.000,A,3518.2319,N,08930.0805,W,0.07,62.34,071109,,,D*47
$GPVTG,62.34,T,,M,0.07,N,0.1,K,D*3D
$GPGGA,053848.000,3518.2319,N,08930.0805,W,2,08,1.6,93.1,M,-30.4,M,1.8,0000*7F
$GPGSA,A,3,22,26,31,18,14,21,12,30,,,,,2.9,1.6,2.4*31
$GPGSV,3,1,12,22,74,061,34,14,65,323,27,26,57,024,36,18,41,106,36*71
$GPGSV,3,2,12,31,26,203,33,30,20,118,35,12,17,080,37,09,16,040,17*76
$GPGSV,3,3,12,21,10,165,33,27,07,038,,19,06,270,27,11,03,321,*7E
$GPRMC,053848.000,A,3518.2319,N,08930.0805,W,0.06,59.42,071109,,,D*40
$GPVTG,59.42,T,,M,0.06,N,0.1,K,D*35
$GPGGA,053849.000,3518.2319,N,08930.0805,W,2,08,1.6,93.1,M,-30.4,M,1.8,0000*7E
$GPGSA,A,3,22,26,31,18,14,21,12,30,,,,,2.9,1.6,2.4*31
$GPRMC,053849.000,A,3518.2319,N,08930.0805,W,0.07,107.47,071109,,,D*7F
$GPVTG,107.47,T,,M,0.07,N,0.1,K,D*0B
$GPGGA,053850.000,3518.2319,N,08930.0805,W,2,08,1.6,93.1,M,-30.4,M,1.8,0000*76
$GPGSA,A,3,22,26,31,18,14,21,12,30,,,,,2.9,1.6,2.4*31
$GPRMC,053850.000,A,3518.2319,N,08930.0805,W,0.07,148.65,071109,,,D*7C
$GPVTG,148.65,T,,M,0.07,N,0.1,K,D*00
$GPGGA,053851.000,3518.2318,N,08930.0805,W,2,08,1.6,93.1,M,-30.4,M,1.8,0000*76
$GPGSA,A,3,22,26,31,18,14,21,12,30,,,,,2.9,1.6,2.4*31
$GPRMC,053851.000,A,3518.2318,N,08930.0805,W,0.08,155.31,071109,,,D*7E
$GPVTG,155.31,T,,M,0.08,N,0.1,K,D*02
$GPGGA,053852.000,3518.2318,N,08930.0805,W,2,08,1.6,93.0,M,-30.4,M,1.8,0000*74
$GPGSA,A,3,22,26,31,18,14,21,12,30,,,,,2.9,1.6,2.4*31
$GPRMC,053852.000,A,3518.2318,N,08930.0805,W,0.06,129.82,071109,,,D*70
$GPVTG,129.82,T,,M,0.06,N,0.1,K,D*0F
$GPGGA,053853.000,3518.2318,N,08930.0805,W,2,08,1.6,93.0,M,-30.4,M,1.8,0000*75
$GPGSA,A,3,22,26,31,18,14,21,12,30,,,,,2.9,1.6,2.4*31
$GPGSV,3,1,12,22,74,061,34,14,65,323,27,26,57,024,36,18,41,106,37*70
$GPGSV,3,2,12,31,26,203,33,30,20,118,35,12,17,080,37,09,16,040,17*76
$GPGSV,3,3,12,21,10,165,33,27,07,038,,19,06,270,27,11,03,321,*7E
$GPVTG,155.48,T,,M,0.06,N,0.1,K,D*02
$GPGGA,053854.000,3518.2318,N,08930.0805,W,2,08,1.6,92.9,M,-30.4,M,1.8,0000*7A
$GPGSA,A,3,22,26,31,18,14,21,12,30,,,,,2.9,1.6,2.4*31
$GPRMC,053854.000,A,3518.2318,N,08930.0805,W,0.05,99.96,071109,,,D*4A
$GPVTG,99.96,T,,M,0.05,N,0.1,K,D*33
$GPGGA,053855.000,3518.2318,N,08930.0805,W,2,08,1.6,92.9,M,-30.4,M,1.8,0000*7B
$GPGSA,A,3,22,26,31,18,14,21,12,30,,,,,2.9,1.6,2.4*31
$GPRMC,053855.000,A,3518.2318,N,08930.0805,W,0.06,27.51,071109,,,D*46
$GPVTG,27.51,T,,M,0.06,N,0.1,K,D*3E
$GPGGA,053856.000,3518.2318,N,08930.0805,W,2,08,1.6,92.9,M,-30.4,M,1.8,0000*78
$GPGSA,A,3,22,26,31,18,14,21,12,30,,,,,2.9,1.6,2.4*31
$GPRMC,053856.000,A,3518.2318,N,08930.0805,W,0.10,30.43,071109,,,D*47
$GPVTG,30.43,T,,M,0.10,N,0.2,K,D*3F
$GPGGA,053857.000,3518.2318,N,08930.0805,W,2,09,1.0,92.9,M,-30.4,M,2.8,0000*7D
$GPGSA,A,3,22,26,31,18,14,21,12,30,19,,,,1.7,1.0,1.3*36
$GPRMC,053857.000,A,3518.2318,N,08930.0805,W,0.10,19.35,071109,,,D*4C
$GPVTG,19.35,T,,M,0.10,N,0.2,K,D*35
$GPGGA,053858.000,3518.2319,N,08930.0805,W,2,09,1.0,92.9,M,-30.4,M,3.8,0000*72
$GPGSA,A,3,22,26,31,18,14,21,12,30,19,,,,1.7,1.0,1.3*36
$GPGSV,3,1,12,22,74,061,35,14,65,323,27,26,57,024,35,18,41,107,37*73
$GPGSV,3,2,12,31,26,203,32,30,20,118,35,12,17,080,37,09,16,040,18*78
$GPGSV,3,3,12,21,10,165,33,27,07,038,,19,06,270,27,11,03,320,*7F
$GPRMC,053858.000,A,3518.2319,N,08930.0805,W,0.10,12.90,071109,,,D*46
$GPVTG,12.90,T,,M,0.10,N,0.2,K,D*31
$GPGGA,053859.000,3518.2319,N,08930.0804,W,2,09,1.0,92.9,M,-30.4,M,4.8,0000*75
$GPGSA,A,3,22,26,31,18,14,21,12,30,19,,,,1.7,1.0,1.3*36
$GPRMC,053859.000,A,3518.2319,N,08930.0804,W,0.10,13.83,071109,,,D*45
$GPVTG,13.83,T,,M,0.10,N,0.2,K,D*32
$GPGGA,053900.000,3518.2319,N,08930.0804,W,2,09,1.0,92.9,M,-30.4,M,1.8,0000*7D
$GPGSA,A,3,22,26,31,18,14,21,12,30,19,,,,1.7,1.0,1.3*36
$GPRMC,053900.000,A,3518.2319,N,08930.0804,W,0.11,15.24,071109,,,D*42
$GPVTG,15.24,T,,M,0.11,N,0.2,K,D*38
$GPGGA,053901.000,3518.2319,N,08930.0804,W,2,09,1.0,92.8,M,-30.4,M,1.8,0000*7D
$GPGSA,A,3,22,26,31,18,14,21,12,30,19,,,,1.7,1.0,1.3*36
$GPRMC,053901.000,A,3518.2319,N,08930.0804,W,0.05,64.93,071109,,,D*4C
$GPVTG,64.93,T,,M,0.05,N,0.1,K,D*34
$GPGGA,053902.000,3518.2319,N,08930.0804,W,2,09,1.0,92.7,M,-30.4,M,1.8,0000*71
$GPGSA,A,3,22,26,31,18,14,21,12,30,19,,,,1.7,1.0,1.3*36
$GPRMC,053902.000,A,3518.2319,N,08930.0804,W,0.04,71.57,071109,,,D*42
$GPVTG,71.57,T,,M,0.04,N,0.1,K,D*39
$GPGGA,053903.000,3518.2319,N,08930.0804,W,2,09,1.0,92.6,M,-30.4,M,2.8,0000*72
$GPGSA,A,3,22,26,31,18,14,21,12,30,19,,,,1.7,1.0,1.3*36
$GPGSV,3,1,12,22,74,061,35,14,65,323,28,26,57,024,35,18,41,107,37*7C
$GPGSV,3,2,12,31,26,203,32,30,20,118,35,12,17,080,37,09,16,040,18*78
$GPGSV,3,3,12,21,10,165,33,27,07,038,,19,06,270,27,11,03,320,*7F
$GPRMC,053903.000,A,3518.2319,N,08930.0804,W,0.05,94.57,071109,,,D*49
$GPVTG,94.57,T,,M,0.05,N,0.1,K,D*33
$GPGGA,053904.000,3518.2319,N,08930.0804,W,2,09,1.0,92.6,M,-30.4,M,3.8,0000*74
$GPGSA,A,3,22,26,31,18,14,21,12,30,19,,,,1.7,1.0,1.3*36
$GPRMC,053904.000,A,3518.2319,N,08930.0804,W,0.03,72.28,071109,,,D*48
$GPVTG,72.28,T,,M,0.03,N,0.1,K,D*35
$GPGGA,053905.000,3518.2319,N,08930.0804,W,2,09,1.0,92.5,M,-30.4,M,1.8,0000*74
$GPGSA,A,3,22,26,31,18,14,21,12,30,19,,,,1.7,1.0,1.3*36
$GPRMC,053905.000,A,3518.2319,N,08930.0804,W,0.04,79.58,071109,,,D*42
$GPVTG,79.58,T,,M,0.04,N,0.1,K,D*3E
$GPGGA,053906.000,3518.2319,N,08930.0804,W,2,09,1.0,92.4,M,-30.4,M,1.8,0000*76
$GPGSA,A,3,22,26,31,18,14,21,12,30,19,,,,1.7,1.0,1.3*36
$GPRMC,053906.000,A,3518.2319,N,08930.0804,W,0.02,103.51,071109,,,D*72
$GPVTG,103.51,T,,M,0.02,N,0.0,K,D*0C
$GPGGA,053907.000,3518.2319,N,08930.0804,W,2,09,1.0,92.4,M,-30.4,M,1.8,0000*77
$GPGSA,A,3,22,26,31,18,14,21,12,30,19,,,,1.7,1.0,1.3*36
$GPRMC,053907.000,A,3518.2319,N,08930.0804,W,0.03,13.34,071109,,,D*41
$GPVTG,13.34,T,,M,0.03,N,0.1,K,D*3F
$GPGGA,053908.000,3518.2319,N,08930.0804,W,2,09,1.0,92.5,M,-30.4,M,1.8,0000*79
$GPGSA,A,3,22,26,31,18,14,21,12,30,19,,,,1.7,1.0,1.3*36
$GPGSV,3,1,12,22,74,061,35,14,65,323,29,26,57,024,35,18,41,107,37*7D
$GPGSV,3,2,12,31,26,203,32,30,20,118,36,12,17,080,37,09,16,040,18*7B
$GPGSV,3,3,12,21,10,165,33,27,07,038,,19,06,270,27,11,03,320,*7F
$GPRMC,053908.000,A,3518.2319,N,08930.0804,W,0.09,353.21,071109,,,D*77
$GPVTG,353.21,T,,M,0.09,N,0.2,K,D*05
$GPGGA,053909.000,3518.2319,N,08930.0804,W,2,09,1.0,92.5,M,-30.4,M,2.8,0000*7B
$GPGSA,A,3,22,26,31,18,14,21,12,30,19,,,,1.7,1.0,1.3*36
$GPRMC,053909.000,A,3518.2319,N,08930.0804,W,0.08,12.17,071109,,,D*44
$GPVTG,12.17,T,,M,0.08,N,0.2,K,D*37
$GPGGA,053910.000,3518.2319,N,08930.0804,W,2,09,1.0,92.5,M,-30.4,M,3.8,0000*72
$GPGSA,A,3,22,26,31,18,14,21,12,30,19,,,,1.7,1.0,1.3*36
$GPRMC,053910.000,A,3518.2319,N,08930.0804,W,0.07,350.70,071109,,,D*77
$GPVTG,350.70,T,,M,0.07,N,0.1,K,D*0F
$GPGGA,053911.000,3518.2319,N,08930.0804,W,2,09,1.0,92.5,M,-30.4,M,4.8,0000*74
$GPGSA,A,3,22,26,31,18,14,21,12,30,19,,,,1.7,1.0,1.3*36
$GPRMC,053911.000,A,3518.2319,N,08930.0804,W,0.08,10.36,071109,,,D*4C
$GPVTG,10.36,T,,M,0.08,N,0.1,K,D*35
$GPGGA,053912.000,3518.2319,N,08930.0804,W,2,09,1.0,92.5,M,-30.4,M,1.8,0000*72
$GPGSA,A,3,22,26,31,18,14,21,12,30,19,,,,1.7,1.0,1.3*36
$GPRMC,053912.000,A,3518.2319,N,08930.0804,W,0.10,5.86,071109,,,D*79
$GPVTG,5.86,T,,M,0.10,N,0.2,K,D*00
$GPGGA,053913.000,3518.2319,N,08930.0804,W,2,09,1.0,92.5,M,-30.4,M,1.8,0000*73
$GPGSA,A,3,22,26,31,18,14,21,12,30,19,,,,1.7,1.0,1.3*36
$GPGSV,3,1,12,22,74,062,35,14,65,324,29,26,57,025,34,18,41,107,37*79
$GPGSV,3,2,12,31,26,203,32,30,20,118,36,12,17,080,37,09,16,040,18*7B
$GPGSV,3,3,12,21,10,165,33,27,07,038,,19,06,270,27,11,03,320,*7F
$GPVTG,4.79,T,,M,0.06,N,0.1,K,D*05
$GPGGA,053914.000,3518.2320,N,08930.0804,W,2,09,1.0,92.4,M,-30.4,M,1.8,0000*7F
$GPGSA,A,3,22,26,31,18,14,21,12,30,19,,,,1.7,1.0,1.3*36
$GPRMC,053914.000,A,3518.2320,N,08930.0804,W,0.03,39.35,071109,,,D*40
$GPVTG,39.35,T,,M,0.03,N,0.1,K,D*36
$GPGGA,053915.000,3518.2320,N,08930.0804,W,2,09,1.0,92.3,M,-30.4,M,1.8,0000*79
$GPGSA,A,3,22,26,31,18,14,21,12,30,19,,,,1.7,1.0,1.3*36
$GPRMC,053915.000,A,3518.2320,N,08930.0804,W,0.03,42.11,071109,,,D*4B
$GPVTG,42.11,T,,M,0.03,N,0.1,K,D*3C
$GPGGA,053916.000,3518.2320,N,08930.0804,W,2,09,1.0,92.2,M,-30.4,M,2.8,0000*78
$GPGSA,A,3,22,26,31,18,14,21,12,30,19,,,,1.7,1.0,1.3*36
$GPRMC,053916.000,A,3518.2320,N,08930.0804,W,0.04,29.12,071109,,,D*41
$GPVTG,29.12,T,,M,0.04,N,0.1,K,D*35
$GPGGA,053917.000,3518.2319,N,08930.0805,W,2,09,1.0,92.1,M,-30.4,M,3.8,0000*70
$GPGSA,A,3,22,26,31,18,14,21,12,30,19,,,,1.7,1.0,1.3*36
$GPRMC,053917.000,A,3518.2319,N,08930.0805,W,0.02,70.55,071109,,,D*42
$GPVTG,70.55,T,,M,0.02,N,0.0,K,D*3D
$GPGGA,053918.000,3518.2319,N,08930.0805,W,2,09,1.0,92.0,M,-30.4,M,1.8,0000*7C
$GPGSA,A,3,22,26,31,18,14,21,12,30,19,,,,1.7,1.0,1.3*36
$GPGSV,3,1,12,22,74,062,35,14,65,324,29,26,57,025,34,18,41,107,37*79
$GPGSV,3,2,12,31,26,203,32,30,20,118,36,12,17,080,37,09,16,040,19*7A
$GPGSV,3,3,12,21,10,165,32,27,07,038,17,19,06,270,27,11,03,320,*78
$GPRMC,053918.000,A,3518.2319,N,08930.0805,W,0.02,275.52,071109,,,D*7D
$GPVTG,275.52,T,,M,0.02,N,0.0,K,D*0D
$GPGGA,053919.000,3518.2319,N,08930.0805,W,2,09,1.0,92.0,M,-30.4,M,1.8,0000*7D
$GPGSA,A,3,22,26,31,18,14,21,12,30,19,,,,1.7,1.0,1.3*36
$GPRMC,053919.000,A,3518.2319,N,08930.0805,W,0.05,33.30,071109,,,D*4F
$GPVTG,33.30,T,,M,0.05,N,0.1,K,D*3F
$GPGGA,053920.000,3518.2319,N,08930.0806,W,2,09,1.0,92.0,M,-30.4,M,1.8,0000*74
$GPGSA,A,3,22,26,31,18,14,21,12,30,19,,,,1.7,1.0,1.3*36
$GPRMC,053920.000,A,3518.2319,N,08930.0806,W,0.07,5.16,071109,,,D*75
$GPVTG,5.16,T,,M,0.07,N,0.1,K,D*0C
$GPGGA,053921.000,3518.2319,N,08930.0806,W,2,09,1.0,92.1,M,-30.4,M,2.8,0000*77
$GPGSA,A,3,22,26,31,18,14,21,12,30,19,,,,1.7,1.0,1.3*36
$GPRMC,053921.000,A,3518.2319,N,08930.0806,W,0.08,9.04,071109,,,D*74
$GPVTG,9.04,T,,M,0.08,N,0.2,K,D*0F
$GPGGA,053922.000,3518.2319,N,08930.0806,W,2,09,1.0,92.1,M,-30.4,M,3.8,0000*75
$GPGSA,A,3,22,26,31,18,14,21,12,30,19,,,,1.7,1.0,1.3*36
$GPRMC,053922.000,A,3518.2319,N,08930.0806,W,0.08,14.64,071109,,,D*4D
$GPVTG,14.64,T,,M,0.08,N,0.1,K,D*36
$GPGGA,053923.000,3518.2319,N,08930.0806,W,2,09,1.0,92.1,M,-30.4,M,1.8,0000*76
$GPGSA,A,3,22,26,31,18,14,21,12,30,19,,,,1.7,1.0,1.3*36
$GPGSV,3,1,12,22,74,062,35,14,65,324,29,26,57,025,35,18,41,107,37*78
$GPGSV,3,2,12,31,26,203,32,30,20,118,36,12,17,080,37,09,16,040,19*7A
$GPGSV,3,3,12,21,10,165,32,27,07,038,17,19,06,270,27,11,03,320,*78
$GPRMC,053923.000,A,3518.2319,N,08930.0806,W,0.07,7.08,071109,,,D*7B
$GPVTG,7.08,T,,M,0.07,N,0.1,K,D*01
$GPGGA,053924.000,3518.2319,N,08930.0806,W,2,09,1.0,92.1,M,-30.4,M,1.8,0000*71
$GPGSA,A,3,22,26,31,18,14,21,12,30,19,,,,1.7,1.0,1.3*36
$GPRMC,053924.000,A,3518.2319,N,08930.0806,W,0.08,9.03,071109,,,D*76
$GPVTG,9.03,T,,M,0.08,N,0.2,K,D*08
$GPGGA,053925.000,3518.2319,N,08930.0806,W,2,09,1.0,92.1,M,-30.4,M,1.8,0000*70
$GPGSA,A,3,22,26,31,18,14,21,12,30,19,,,,1.7,1.0,1.3*36
$GPRMC,053925.000,A,3518.2319,N,08930.0806,W,0.07,7.87,071109,,,D*7A
$GPVTG,7.87,T,,M,0.07,N,0.1,K,D*06
$GPGGA,053926.000,3518.2319,N,08930.0806,W,2,09,1.0,92.1,M,-30.4,M,1.8,0000*73
$GPGSA,A,3,22,26,31,18,14,21,12,30,19,,,,1.7,1.0,1.3*36
$GPRMC,053926.000,A,3518.2319,N,08930.0806,W,0.01,291.41,071109,,,D*78
$GPVTG,291.41,T,,M,0.01,N,0.0,K,D*06
$GPGGA,053927.000,3518.2319,N,08930.0806,W,2,09,1.0,92.0,M,-30.4,M,2.8,0000*70
$GPGSA,A,3,22,26,31,18,14,21,12,30,19,,,,1.7,1.0,1.3*36
$GPRMC,053927.000,A,3518.2319,N,08930.0806,W,0.02,55.84,071109,,,D*49
$GPVTG,55.84,T,,M,0.02,N,0.0,K,D*36
$GPGGA,053928.000,3518.2319,N,08930.0806,W,2,09,1.0,91.9,M,-30.4,M,3.8,0000*74
$GPGSA,A,3,22,26,31,18,14,21,12,30,19,,,,1.7,1.0,1.3*36
$GPGSV,3,1,12,22,74,062,35,14,65,324,29,26,57,025,35,18,41,107,37*78
$GPGSV,3,2,12,31,26,203,32,30,20,118,36,12,17,080,37,09,16,040,19*7A
$GPGSV,3,3,12,21,10,165,32,27,07,038,17,19,06,270,27,11,03,320,*78
$GPRMC,053928.000,A,3518.2319,N,08930.0806,W,0.05,341.42,071109,,,D*7D
$GPVTG,341.42,T,,M,0.05,N,0.1,K,D*0C
$GPGGA,053929.000,3518.2319,N,08930.0806,W,2,09,1.0,91.9,M,-30.4,M,4.8,0000*72
$GPGSA,A,3,22,26,31,18,14,21,12,30,19,,,,1.7,1.0,1.3*36
$GPRMC,053929.000,A,3518.2319,N,08930.0806,W,0.02,68.90,071109,,,D*4C
$GPVTG,68.90,T,,M,0.02,N,0.0,K,D*3D
$GPGGA,053930.000,3518.2318,N,08930.0807,W,2,09,1.0,91.9,M,-30.4,M,1.8,0000*7F
$GPGSA,A,3,22,26,31,18,14,21,12,30,19,,,,1.7,1.0,1.3*36
$GPRMC,053930.000,A,3518.2318,N,08930.0807,W,0.00,258.95,071109,,,D*72
$GPVTG,258.95,T,,M,0.00,N,0.0,K,D*0B
$GPGGA,053931.000,3518.2318,N,08930.0807,W,2,09,1.0,91.9,M,-30.4,M,1.8,0000*7E
